stop_id,stop_code,stop_name,stop_desc,stop_lat,stop_lon,zone_id,stop_url,location_type,parent_station,stop_timezone,wheelchair_boarding
6,1812,"N California Blvd + Lacassie Ave",,37.903523,-122.065292,,,,,,2
8,1756,"Locust St + Civic Dr",,37.900192,-122.062607,,,,,,0
17,1763,"N Main St + Civic Dr",,37.901646,-122.061806,,,,,,2
21,1741,"Creekside Dr + End",,37.882168,-122.049751,,,,,,2
46,1882,"S Broadway + Newell Ave",,37.894184,-122.055443,,,,,,2
49,1739,"Creekside Dr + The Retreat",,37.886177,-122.052635,,,,,,2
50,1740,"Creekside Dr + Near Ct",,37.883800,-122.050911,,,,,,2
53,1752,"Lilac Dr + Lancaster Rd",,37.890118,-122.060646,,,,,,2
56,1185,"Moraga Rd + Mt Diablo Blvd",,37.891121,-122.118729,,,,,,2
66,1352,"Moraga Rd + Devin Dr",,37.850704,-122.125465,,,,,,2
67,1353,"Moraga Rd + Corliss Dr",,37.846920,-122.126167,,,,,,2
68,1354,"Moraga Rd + Alta Mesa Dr",,37.837761,-122.126053,,,,,,2
69,1355,"Moraga Rd + Moraga Way",,37.834519,-122.127174,,,,,,2
72,1358,"Moraga Way + Hardie Dr",,37.841278,-122.142326,,,,,,2
83,1402,"Moraga Way + Glorietta Blvd",,37.862404,-122.168823,,,,,,2
87,1366,"Orinda BART",,37.877960,-122.184319,,,,,,2
124,1337,"Canyon Rd + De La Cruz Way",,37.828899,-122.131134,,,,,,2
147,1217,"Pleasant Hill Rd + Condit Rd",,37.891918,-122.094185,,,,,,0
149,2097,"Mt Diablo Blvd + Carol Ln",,37.896122,-122.103272,,,,,,2
153,1194,"Mt Diablo Blvd + Second St",,37.892868,-122.113525,,,,,,2
155,1179,"Happy Valley Rd + Mt Diablo Blvd",,37.891716,-122.125839,,,,,,2
174,1204,"Mt Diablo Blvd + Lafayette Cir",,37.891487,-122.122482,,,,,,0
183,1219,"Pleasant Hill Rd + Old Tunnel Rd",,37.894821,-122.095574,,,,,,0
194,1221,"Rohrer Dr + Merriewood Dr",,37.861160,-122.091675,,,,,,2
198,1174,"Happy Valley Rd + Upper Happy Valley Rd",,37.906471,-122.152878,,,,,,2
200,1246,"Upper Happy Valley Rd + N Peardale Dr",,37.899898,-122.150955,,,,,,2
201,1247,"Upper Happy Valley Rd + Rahara Dr",,37.898125,-122.150909,,,,,,2
202,1248,"Upper Happy Valley Rd + Los Arabis Dr",,37.895161,-122.151306,,,,,,2
203,1170,"El Nido Ranch Rd + Upper Happy Valley Rd",,37.893406,-122.153664,,,,,,2
223,1203,"Mt Diablo Blvd + Happy Valley Rd",,37.891129,-122.125069,,,,,,0
228,1771,"Marchbanks Dr + Crosby Ct",,37.914208,-122.048889,,,,,,0
232,1750,"Heather Dr + N San Carlos Dr",,37.918369,-122.040276,,,,,,0
253,1843,"N Wiget Ln + Shadelands Dr",,37.926773,-122.025101,,,,,,2
255,1935,"Ygnacio Valley Rd + Lennon Ln",,37.923756,-122.027702,,,,,,2
262,827,"Treat Blvd + Jones St and Cherry Ln",,37.926464,-122.052483,,,,,,2
265,1705,"Bancroft Rd + La Corso Cir",,37.923988,-122.037834,,,,,,0
269,1840,"N Wiget Ln + Shadelands Dr",,37.926529,-122.024689,,,,,,2
281,1906,"Walnut Ave + Wiget Ln",,37.914959,-122.019867,,,,,,0
286,1911,"Walnut Ave + Desert Cir",,37.920338,-122.033340,,,,,,0
301,1461,"Contra Costa Blvd + Woodsworth Ln",,37.949669,-122.060326,,,,,,2
302,1474,"Gregory Ln + Contra Costa Blvd",,37.948071,-122.061218,,,,,,2
304,1442,"Cleaveland Rd + Crescent Plz",,37.945431,-122.064369,,,,,,2
308,1517,"Patterson Blvd + Soule Ave",,37.941250,-122.069710,,,,,,2
325,1426,"Boyd Rd + Campbell Ln",,37.943474,-122.065506,,,,,,2
342,1427,"Boyd Rd + Cleaveland Rd",,37.943432,-122.063652,,,,,,2
343,1551,"W Hookston Rd + Hookston Senior Homes",,37.940559,-122.062851,,,,,,2
346,784,"Salvio St + Colfax St",,37.978470,-122.032799,,,,,,2
347,785,"Salvio St + Galindo St",,37.976715,-122.036522,,,,,,2
348,694,"Mira Vista Ter + Willow Pass Rd",,37.975216,-122.037628,,,,,,2
349,629,"Fry Way + Clayton Rd",,37.972275,-122.040855,,,,,,2
352,673,"Meadow Ln + William Way",,37.965889,-122.047752,,,,,,2
353,674,"Meadow Ln + Mayette Ave",,37.963020,-122.044945,,,,,,2
356,677,"Meadow Ln + Monument Blvd",,37.957268,-122.039978,,,,,,2
357,735,"Oak Grove Rd + Monument Blvd",,37.955490,-122.038658,,,,,,2
368,1714,"Bancroft Rd + Countrywood Ct",,37.930203,-122.043526,,,,,,2
370,1074,"Pleasant Hill BART",,37.928300,-122.055800,,,,,,2
384,679,"Meadow Ln + Robin Ln",,37.959350,-122.041470,,,,,,2
385,680,"Meadow Ln + Sunshine Dr",,37.961330,-122.043260,,,,,,2
387,669,"Market St + Clayton Rd",,37.969227,-122.046982,,,,,,2
399,2013,"Geary Rd + Pioneer Ave",,37.926483,-122.064198,,,,,,0
400,2123,"Geary Rd + Lexington Pl",,37.926392,-122.070862,,,,,,0
417,2017,"Geary Rd + Hall Ln",,37.926311,-122.067184,,,,,,0
418,2018,"Geary Rd + Pioneer Ave",,37.926327,-122.064331,,,,,,0
425,791,"San Miguel Rd + Galloway Dr",,37.958283,-122.027702,,,,,,2
432,885,"Concord BART",,37.973259,-122.029686,,,,,,2
442,713,"Monument Blvd + Victory Ln",,37.950760,-122.047279,,,,,,2
452,703,"Mohr Ln + Wicket Ct",,37.941589,-122.045120,,,,,,2
455,706,"Mohr Ln + Del Rio Cir",,37.946182,-122.048065,,,,,,2
456,707,"Mohr Ln + Monument Blvd",,37.947506,-122.050514,,,,,,2
476,897,"North Concord Martinez BART",,38.002251,-122.024201,,,,,,2
477,781,"Port Chicago Hwy + Panoramic Dr",,38.004295,-122.024292,,,,,,2
479,747,"Olivera Rd + Welch Ct",,37.995678,-122.032181,,,,,,2
480,748,"Olivera Rd + Thunderbird Dr",,37.996086,-122.034187,,,,,,2
484,752,"Olivera Rd + Peralta Rd",,37.998646,-122.047363,,,,,,2
486,795,"Solano Way + Marsh Dr",,37.998768,-122.053108,,,,,,2
497,637,"Grant St + Pacheco St",,37.978775,-122.034264,,,,,,2
516,896,"North Concord Martinez BART",,38.002411,-122.024216,,,,,,2
564,2008,"Diamond Blvd + Galaxy Way",,37.974381,-122.058395,,,,,,2
570,1512,"Old Quarry Rd + Camelback Rd",,37.972450,-122.069008,,,,,,0
578,2070,"Glacier Dr + Muir Rd",,37.990604,-122.086990,,,,,,2
587,1024,"Pacheco Blvd + Morello Ave",,38.010982,-122.102280,,,,,,2
588,1025,"Pacheco Blvd + Refinery Rd",,38.012127,-122.105263,,,,,,2
589,1026,"Pacheco Blvd + Howe Rd",,38.012428,-122.111336,,,,,,2
590,1027,"Pacheco Blvd + Shell Ave",,38.012962,-122.118263,,,,,,2
593,1030,"Pine St + Susana St",,38.015736,-122.130630,,,,,,2
594,1031,"Court St + Green St",,38.017246,-122.133156,,,,,,2
597,1034,"Escobar St + Castro St",,38.017139,-122.138420,,,,,,2
630,645,"John Glenn Dr + Concord Ave",,37.979549,-122.055160,,,,,,2
639,1949,"Walnut Creek BART",,37.905384,-122.067184,,,,,,0
640,1805,"N California Blvd + Cole Ave",,37.902493,-122.064949,,,,,,2
641,1806,"N California Blvd + Trinity Ave",,37.901203,-122.064491,,,,,,2
642,1807,"N California Blvd + Bonanza St",,37.898975,-122.063599,,,,,,2
656,953,"Danville Blvd + Las Trampas Rd",,37.847790,-122.031242,,,,,,2
657,955,"Danville Blvd + Alamo Womens Club",,37.845207,-122.028938,,,,,,2
658,954,"Danville Blvd + La Serena Ave",,37.843906,-122.027588,,,,,,2
685,1697,"San Ramon Transit Center",,37.770443,-121.960319,,,,,,2
696,1585,"Bollinger Canyon Rd + Norris Canyon Rd",,37.763477,-121.982750,,,,,,2
716,1152,"Village Pkwy + Tamarack Dr",,37.714516,-121.927162,,,,,,2
717,1153,"Village Pkwy + Amador Valley Blvd",,37.709717,-121.926857,,,,,,2
721,1159,"Dublin Pleasanton BART",,37.703056,-121.899712,,,,,,0
727,1155,"Village Pkwy + Tamarack Dr",,37.715187,-121.926895,,,,,,0
731,1562,"Alcosta Blvd + Belle Meade Dr",,37.728500,-121.933945,,,,,,0
773,1130,"San Ramon Valley Blvd + Bank of America",,37.815338,-121.996353,,,,,,2
783,965,"Danville Blvd + Camille Ave",,37.837894,-122.021080,,,,,,2
795,1561,"Alcosta Blvd + Fircrest Ln",,37.731640,-121.928108,,,,,,0
807,891,"Concord BART",,37.974697,-122.028976,,,,,,0
818,839,"Treat Blvd + Pembroke Dr",,37.957951,-121.998261,,,,,,2
831,475,"Cal State East Bay",,37.944817,-121.978050,,,,,,0
845,586,"Concord Blvd + Denkinger Rd",,37.974815,-121.982834,,,,,,0
848,589,"Concord Blvd + West St",,37.977169,-121.990669,,,,,,2
860,893,"Concord BART",,37.974155,-122.029290,,,,,,2
877,489,"Ayers Rd + Concord Blvd",,37.962769,-121.964867,,,,,,0
878,490,"Ayers Rd + Olive Dr",,37.960842,-121.966263,,,,,,0
915,1375,"Miner Rd + Camino Lenada",,37.890499,-122.194107,,,,,,2
929,1411,"Orindawoods Dr + Ironbark Cir",,37.890141,-122.177773,,,,,,2
950,1265,"Alhambra Ave + F St",,38.000912,-122.131920,,,,,,2
959,892,"Concord BART",,37.973847,-122.029373,,,,,,2
961,878,"Willow Pass Rd + Waterworld Pkwy",,37.969376,-122.051415,,,,,,2
964,1256,"Alhambra Ave + Fresh Start Cafe",,37.995804,-122.132324,,,,,,2
984,1939,"Ygnacio Valley Rd + N Civic Dr",,37.907211,-122.057892,,,,,,2
985,1946,"Walnut Creek BART",,37.905319,-122.066536,,,,,,0
1003,479,"Arnold Industrial Way + Industrial Way",,38.009045,-122.031975,,,,,,2
1024,924,"Center Ave + Kaiser Dr",,37.991405,-122.110687,,,,,,2
1027,926,"Center Ave + Public Health Services California",,37.992557,-122.118545,,,,,,2
1037,1304,"Howe Rd + Buena Vida Ct",,37.997276,-122.119934,,,,,,2
1074,1313,"Muir Rd + Center Ave",,37.994629,-122.118690,,,,,,2
1080,2005,"Industrial Way + Pike Ct",,38.011677,-122.034195,,,,,,2
1108,1555,"Bishop Ranch 15",,37.773609,-121.960892,,,,,,2
1121,1115,"Hartz Ave + Prospect Ave",,37.821751,-122.000160,,,,,,2
1131,906,"Boulevard Way + Nicholson Rd",,37.895149,-122.072579,,,,,,2
1133,908,"Boulevard Way + Saranap Ave",,37.893719,-122.076897,,,,,,2
1135,910,"Boulevard Way + Olympic Blvd",,37.885418,-122.077957,,,,,,2
1140,911,"Castlehill Rd + Garland Ct",,37.881855,-122.054871,,,,,,2
1141,912,"Castlehill Rd + Arbol Grande",,37.882160,-122.052742,,,,,,2
1144,1069,"Tice Valley Blvd + Tice Valley Ln",,37.875809,-122.066994,,,,,,2
1155,1950,"Walnut Creek BART",,37.905319,-122.067444,,,,,,0
1162,1784,"Montego + Tampico",,37.910088,-122.045647,,,,,,2
1163,1785,"Montego + Tampico",,37.910225,-122.043778,,,,,,2
1168,1931,"Ygnacio Valley Rd + Walnut Blvd",,37.907997,-122.055153,,,,,,2
1175,1924,"Walnut Blvd + Ygnacio Valley Rd",,37.907627,-122.054726,,,,,,2
1179,1799,"Newell Ave + S Main St",,37.893246,-122.057892,,,,,,2
1242,1875,"San Miguel Dr + Blackwood Dr",,37.891327,-122.049049,,,,,,2
1245,1865,"Parkside Dr + San Juan Ave",,37.910343,-122.068642,,,,,,0
1246,1722,"Buena Vista Ave + Parkside Dr",,37.910618,-122.070519,,,,,,0
1249,1725,"Buena Vista Ave + San Luis Rd",,37.917423,-122.073608,,,,,,0
1250,1726,"Buena Vista Ave + Third Ave",,37.919659,-122.073830,,,,,,0
1251,1727,"Buena Vista Ave + Second Ave",,37.922020,-122.073593,,,,,,0
1269,1544,"Viking Dr + Odin Dr",,37.964630,-122.078316,,,,,,2
1273,1923,"Walnut Blvd + Ygnacio Valley Rd",,37.909317,-122.054962,,,,,,2
1278,1001,"Mountain View Blvd + Mynah Ct",,37.886753,-122.034584,,,,,,2
1281,571,"Concord Blvd + Grant St",,37.976120,-122.032585,,,,,,2
1284,635,"Gateway Blvd + Willow Pass Rd",,37.971787,-122.043487,,,,,,2
1287,519,"Clayton Rd + Ellis St",,37.972809,-122.038368,,,,,,2
1292,448,"Clayton Rd + Mitchell Canyon Rd",,37.944210,-121.942680,,,,,,2
1304,686,"Michigan Blvd + Washington Blvd",,37.945980,-121.960121,,,,,,2
1305,687,"Michigan Blvd + Round Tree Way",,37.946674,-121.961830,,,,,,2
1310,547,"Clayton Rd + Silverleaf Ln",,37.958241,-121.974167,,,,,,2
1312,549,"Clayton Rd + Indian Ln",,37.959888,-121.978767,,,,,,2
1313,550,"Clayton Rd + Bailey Rd",,37.961472,-121.983154,,,,,,2
1315,552,"Clayton Rd + Glazier Dr",,37.964207,-121.990723,,,,,,2
1316,553,"Clayton Rd + Denkinger Ct",,37.965629,-121.994636,,,,,,2
1317,554,"Clayton Rd + Mendocino Dr",,37.966847,-121.997917,,,,,,2
1318,555,"Clayton Rd + West St",,37.967911,-122.001511,,,,,,2
1320,557,"Clayton Rd + Maynard St",,37.969765,-122.008118,,,,,,2
1321,558,"Clayton Rd + Barbis Way",,37.970482,-122.010811,,,,,,2
1323,560,"Clayton Rd + Sixth St",,37.973042,-122.019859,,,,,,2
1324,561,"Clayton Rd + Fifth St",,37.973728,-122.022255,,,,,,2
1357,542,"Clayton Rd + Washington Blvd",,37.951183,-121.955673,,,,,,2
1375,882,"Ygnacio Valley Rd + Park Highlands",,37.950020,-121.960548,,,,,,2
1391,714,"Monument Blvd + Mohr Ln",,37.948250,-122.050758,,,,,,2
1393,1463,"Crescent Plz + Cleaveland Rd",,37.945290,-122.063980,,,,,,2
1395,1451,"Contra Costa Blvd + East Vivian Dr",,37.952061,-122.060059,,,,,,2
1413,1102,"Diablo Rd + Green Valley Shopping Center",,37.823036,-121.992462,,,,,,2
1414,1133,"Sycamore Valley Rd + Brookside Dr",,37.811264,-121.986801,,,,,,2
1428,1630,"Crow Canyon Rd + Shoreline Dr",,37.783379,-121.939400,,,,,,2
1431,1633,"Crow Canyon Rd + Alcosta Blvd",,37.781536,-121.964790,,,,,,2
1432,1634,"Crow Canyon Rd + Camino Ramon",,37.779872,-121.968856,,,,,,2
1463,970,"Danville Blvd + Alamo Plaza",,37.851368,-122.033218,,,,,,2
1479,1571,"Alcosta Blvd + Terra Alta Dr",,37.757359,-121.940590,,,,,,2
1482,1574,"Alcosta Blvd + Bollinger Canyon Rd",,37.765663,-121.951592,,,,,,2
1494,1554,"Bishop Ranch 2600",,37.766575,-121.963341,,,,,,2
1495,2052,"San Ramon Transit Center",,37.770546,-121.960510,,,,,,2
1496,890,"Concord BART",,37.974537,-122.029068,,,,,,2
1499,864,"Willow Pass Rd + Sixth St",,37.981518,-122.019363,,,,,,2
1500,865,"Willow Pass Rd + Farm Bureau Rd",,37.983047,-122.016052,,,,,,2
1514,813,"Treat Blvd + Lancelot Dr",,37.958759,-121.997559,,,,,,2
1515,814,"Treat Blvd + Cowell Rd",,37.955143,-122.002296,,,,,,2
1517,816,"Treat Blvd + Navaronne Way",,37.946739,-122.012993,,,,,,2
1525,824,"Treat Blvd + Carriage Dr",,37.931023,-122.039902,,,,,,2
1533,1951,"Walnut Creek BART",,37.905128,-122.067566,,,,,,0
1538,1819,"N Civic Dr + Walden Rd",,37.916935,-122.059143,,,,,,2
1560,869,"Willow Pass Rd + Ashdale Dr",,37.988678,-122.007340,,,,,,2
1566,1944,"Walnut Creek BART",,37.905445,-122.066918,,,,,,0
1579,1276,"Alhambra Ave + Roanoke Dr",,37.962383,-122.096184,,,,,,2
1621,1013,"Pacheco Blvd + Camino Del Sol",,38.008260,-122.095690,,,,,,2
1622,1014,"Pacheco Blvd + Arthur Rd",,38.006260,-122.090569,,,,,,2
1664,974,"Danville Blvd + Hillgrade Ave",,37.870285,-122.045143,,,,,,2
1677,1168,"Deer Hill Rd + Happy Valley Rd",,37.894230,-122.126022,,,,,,2
1710,633,"UFCW and Employers Plaza",,37.973667,-122.060783,,,,,,2
1757,1043,"San Miguel Dr + Mountain View Blvd",,37.886086,-122.037071,,,,,,2
1777,578,"Concord Blvd + Yvonne Dr",,37.959450,-121.957069,,,,,,0
2166,1757,"Locust St + Bonanza St",,37.899558,-122.062292,,,,,,2
2167,1758,"Locust St + Peets Coffee",,37.898298,-122.061735,,,,,,2
2168,1791,"Mt Diablo Blvd + Locust St",,37.897317,-122.060980,,,,,,2
2170,1720,"Broadway Plz + Macys",,37.895385,-122.057940,,,,,,0
2171,1721,"Broadway Plz + S Main St",,37.894377,-122.058298,,,,,,2
2172,1715,"Bothelho Dr + Locust St",,37.894948,-122.060822,,,,,,2
2173,1759,"Locust St + Olympic Blvd",,37.895978,-122.061417,,,,,,2
2174,1981,"Locust St + Mt Diablo Blvd",,37.897127,-122.061417,,,,,,2
2175,1760,"N Main St + Duncan St",,37.898493,-122.060305,,,,,,2
2176,1761,"N Main St + Bonanza St",,37.899928,-122.060940,,,,,,2
2177,1764,"N Main St + Arroyo Way",,37.905527,-122.063802,,,,,,2
2178,1867,"Pringle Ave + N Main St",,37.907717,-122.065053,,,,,,2
2182,604,"Contra Costa Blvd + Golf Club Rd",,37.970988,-122.063563,,,,,,2
2183,1450,"Contra Costa Blvd + Viking Dr",,37.967782,-122.062967,,,,,,2
2184,858,"Sun Valley Blvd + Santa Monica Dr",,37.962945,-122.060842,,,,,,2
2185,859,"Willow Pass Rd + Diamond Blvd",,37.969010,-122.051543,,,,,,2
2186,860,"Willow Pass Rd + Franquette Ave",,37.969940,-122.050112,,,,,,2
2187,634,"Gateway Blvd + Clayton Rd",,37.971255,-122.042722,,,,,,2
2189,520,"Clayton Rd + Galindo St",,37.974112,-122.034038,,,,,,2
2190,745,"Oak St + Galindo St",,37.972137,-122.032330,,,,,,2
2191,883,"Concord BART",,37.972663,-122.029838,,,,,,2
2192,521,"Clayton Rd + San Carlos Ave",,37.973980,-122.023747,,,,,,2
2193,522,"Clayton Rd + Fifth Ave",,37.973555,-122.021998,,,,,,2
2194,523,"Clayton Rd + Coventry Rd",,37.972983,-122.019972,,,,,,2
2195,524,"Clayton Rd + Davis Ave",,37.972192,-122.017190,,,,,,2
2196,525,"Clayton Rd + Grove Way",,37.971870,-122.016058,,,,,,2
2198,527,"Clayton Rd + Babel Ln",,37.969843,-122.008867,,,,,,2
2199,528,"Clayton Rd + Farm Bureau Rd",,37.968787,-122.005150,,,,,,2
2200,529,"Clayton Rd + Loeffler Ln",,37.967607,-122.000998,,,,,,2
2201,530,"Clayton Rd + Cape Cod Way",,37.966435,-121.997292,,,,,,2
2202,532,"Clayton Rd + Bel Air Dr",,37.964102,-121.990993,,,,,,2
2203,533,"Clayton Rd + Wharton Way",,37.962485,-121.986423,,,,,,2
2204,534,"Clayton Rd + Bailey Rd",,37.961293,-121.983085,,,,,,2
2205,535,"Clayton Rd + Indian Ln",,37.959612,-121.978457,,,,,,2
2206,536,"Clayton Rd + Claycord Ave",,37.958817,-121.976252,,,,,,2
2207,538,"Clayton Rd + Ayers Rd",,37.955837,-121.968185,,,,,,2
2208,539,"Clayton Rd + Alberta Way",,37.954772,-121.965165,,,,,,2
2209,540,"Clayton Rd + Hospice Thrift Shoppes",,37.953215,-121.960675,,,,,,2
2210,541,"Clayton Rd + Ygnacio Valley Rd",,37.952598,-121.958965,,,,,,2
2212,444,"Clayton Rd + El Camino Dr",,37.948430,-121.950622,,,,,,2
2215,498,"Center St + Easley Dr",,37.941153,-121.931945,,,,,,2
2217,452,"Marsh Creek Rd + Greystone Rd",,37.935328,-121.932223,,,,,,2
2218,460,"Mountaire Pkwy + Mountaire Cir",,37.933247,-121.931348,,,,,,0
2219,456,"Mountaire Cir + Mountaire Pkwy",,37.929102,-121.931667,,,,,,0
2220,457,"Mountaire Cir + Mt Hamilton Ct",,37.928185,-121.933573,,,,,,0
2221,458,"Mountaire Cir + Mt Washington Way",,37.930473,-121.936673,,,,,,0
2222,459,"Mountaire Cir + Mt Scott Ct",,37.933398,-121.935322,,,,,,0
2223,461,"Mountaire Pkwy + Marsh Creek Rd",,37.933835,-121.931090,,,,,,0
2224,453,"Marsh Creek Rd + El Molino Dr",,37.933910,-121.928250,,,,,,2
2225,454,"Marsh Creek Rd + Bigelow St",,37.932405,-121.923958,,,,,,2
2226,500,"Clayton Rd + Peacock Creek Dr",,37.938988,-121.926740,,,,,,2
2227,447,"Clayton Rd + Clayton Library",,37.942290,-121.934787,,,,,,2
2230,543,"Clayton Rd + Kirker Pass Rd",,37.952460,-121.958052,,,,,,2
2231,544,"Clayton Rd + Schenone Ct",,37.953560,-121.961092,,,,,,2
2232,545,"Clayton Rd + Terry Lynn Ln",,37.954998,-121.965263,,,,,,2
2233,546,"Clayton Rd + Ayers Rd",,37.956195,-121.968542,,,,,,2
2234,548,"Clayton Rd + Claycord Ave",,37.958920,-121.975993,,,,,,2
2235,551,"Clayton Rd + Thornwood Dr",,37.962873,-121.987000,,,,,,2
2236,556,"Clayton Rd + Farm Bureau Rd",,37.969200,-122.006085,,,,,,2
2237,559,"Clayton Rd + Grove Way",,37.972180,-122.016693,,,,,,2
2238,562,"Clayton Rd + The Alameda",,37.974580,-122.025178,,,,,,2
2239,531,"Clayton Rd + Denkinger Ct",,37.965373,-121.994430,,,,,,2
2240,537,"Clayton Rd + Newhall Pkwy",,37.958002,-121.973987,,,,,,2
2243,446,"Clayton Rd + Atchison Stage Rd",,37.945398,-121.945633,,,,,,2
2244,450,"Clayton Rd + Mitchell Canyon Rd",,37.943173,-121.941143,,,,,,2
2245,499,"Marsh Creek Rd + High St",,37.940065,-121.933515,,,,,,2
2253,486,"Ayers Rd + Clayton Rd",,37.957105,-121.968443,,,,,,0
2254,487,"Ayers Rd + Sutherland Dr",,37.958170,-121.967807,,,,,,0
2255,488,"Ayers Rd + Olive Dr",,37.961022,-121.965960,,,,,,0
2256,599,"Concord Blvd + Ayers Rd",,37.962732,-121.964330,,,,,,0
2257,573,"Concord Blvd + Meadow Pine Ct",,37.961885,-121.962562,,,,,,0
2258,574,"Concord Blvd + Mariposa Ct",,37.961277,-121.961290,,,,,,0
2259,575,"Concord Blvd + Yvonne Ct",,37.959497,-121.957377,,,,,,0
2260,576,"Concord Blvd + Cantrell Ct",,37.957978,-121.954138,,,,,,0
2261,651,"Kirkwood Dr + Kirker Pass Rd",,37.958010,-121.946388,,,,,,0
2262,652,"Kirkwood Dr + Preston Ct",,37.957783,-121.943647,,,,,,0
2263,653,"Kirkwood Dr + Yardley Ct",,37.957700,-121.942237,,,,,,0
2264,654,"Kirkwood Dr + Jamison Ct",,37.956838,-121.940052,,,,,,0
2265,518,"1887 Camino Estrada",,37.954887,-121.942475,,,,,,0
2266,515,"Camino Estrada + Sepulveda Ct",,37.953853,-121.945753,,,,,,0
2267,516,"Camino Estrada + Pamplona Ct",,37.952757,-121.946925,,,,,,0
2268,517,"Camino Estrada + Concord Blvd",,37.951597,-121.947918,,,,,,0
2269,462,"Oakhurst Dr + Yolanda Cir",,37.951207,-121.946112,,,,,,0
2270,463,"Oakhurst Dr + Indian Wells Way",,37.950858,-121.941422,,,,,,0
2271,464,"Oakhurst Dr + Indian Wells Way",,37.948215,-121.934647,,,,,,0
2272,465,"Oakhurst Dr + Indianhead Way",,37.945717,-121.932342,,,,,,0
2274,854,"Washington Blvd + Kelrose Ct",,37.949340,-121.956622,,,,,,2
2275,766,"Pennsylvania Blvd + Washington Blvd",,37.947893,-121.956860,,,,,,2
2276,767,"Pennsylvania Blvd + Highlands Park",,37.943025,-121.955648,,,,,,2
2277,772,"Pine Hollow Rd + Pine Hollow School",,37.941273,-121.954595,,,,,,2
2278,773,"Pine Hollow Rd + Redlands Way",,37.941242,-121.951992,,,,,,2
2279,682,"Michigan Blvd + El Camino Dr",,37.942743,-121.950522,,,,,,2
2280,683,"Michigan Blvd + Maryland Dr",,37.943280,-121.952310,,,,,,2
2281,684,"Michigan Blvd + Pennsylvania Blvd",,37.944003,-121.954595,,,,,,2
2282,685,"Michigan Blvd + Nebraska Ave",,37.944690,-121.956303,,,,,,0
2283,455,"Marsh Creek Rd + Clayton Rd",,37.932308,-121.923540,,,,,,0
2284,466,"Oakhurst Dr + Indianhead Way",,37.945863,-121.932203,,,,,,0
2285,467,"Oakhurst Dr + Eagle Peak Ave",,37.948613,-121.935005,,,,,,0
2286,468,"Oakhurst Dr + Eagle Peak Ave",,37.951080,-121.941422,,,,,,0
2287,469,"Oakhurst Dr + Yolanda Cir",,37.951263,-121.946687,,,,,,0
2288,581,"Concord Blvd + Alicante Ct",,37.954338,-121.950760,,,,,,0
2290,577,"Concord Blvd + Kirker Pass Rd",,37.957287,-121.952408,,,,,,0
2291,579,"Concord Blvd + Lodato Way",,37.961102,-121.960575,,,,,,0
2292,580,"Concord Blvd + Princeton Ct",,37.962008,-121.962542,,,,,,0
2293,491,"Ayers Rd + Clayton Rd",,37.956537,-121.968900,,,,,,0
2297,648,"Kirker Pass Rd + Olive Dr",,37.954863,-121.953542,,,,,,2
2300,689,"Michigan Blvd + New Hampshire Dr",,37.947098,-121.962940,,,,,,0
2301,690,"Michigan Blvd + Kentucky Dr",,37.945947,-121.960535,,,,,,0
2302,691,"Michigan Blvd + Louisiana Dr",,37.945175,-121.957952,,,,,,0
2314,563,"Clayton Rd + Fry Way",,37.972148,-122.040377,,,,,,2
2315,879,"Sun Valley Blvd + Contra Costa Blvd",,37.963383,-122.060523,,,,,,2
2324,476,"Alberta Way + Clayton Rd",,37.953353,-121.965065,,,,,,0
2339,720,"Mt Diablo St + Oakland Ave",,37.970917,-122.029132,,,,,,0
2340,721,"Mt Diablo St + San Carlos Ave",,37.969907,-122.025475,,,,,,0
2341,722,"Mt Diablo St + Fifth St",,37.969475,-122.023967,,,,,,0
2342,723,"Mt Diablo St + Coventry Rd",,37.968993,-122.022237,,,,,,0
2343,606,"Coventry Rd + Cowell Rd",,37.966272,-122.023330,,,,,,0
2344,607,"Cowell Rd + Quail Ct",,37.964087,-122.016337,,,,,,0
2345,608,"Cowell Rd + St Francis Dr",,37.963080,-122.012780,,,,,,0
2346,609,"Cowell Rd + Mcmullin Dr",,37.961920,-122.008827,,,,,,0
2347,610,"Cowell Rd + Kaski Ln",,37.958142,-122.004257,,,,,,0
2348,838,"Treat Blvd + Cowell Rd",,37.955667,-122.001117,,,,,,2
2349,841,"Turtle Creek Rd + Sussex Way",,37.958762,-121.993715,,,,,,0
2350,842,"Turtle Creek Rd + Big Pine Ln",,37.955900,-121.992403,,,,,,0
2351,843,"Turtle Creek Rd + Bent Tree Ln",,37.954823,-121.990595,,,,,,0
2352,726,"N Larwin Ave + Rising Dawn Ln",,37.952897,-121.990198,,,,,,0
2353,727,"N Larwin Ave + N Prairie Willow Ct",,37.952630,-121.991987,,,,,,0
2354,728,"N Larwin Ave + N Red Maple Ct",,37.951982,-121.994053,,,,,,0
2355,729,"S Larwin Ave + Wildberry Ct",,37.948652,-121.993715,,,,,,0
2356,730,"S Larwin Ave + Leatherwood Ct",,37.947953,-121.990138,,,,,,0
2357,731,"S Larwin Ave + Oakbrook Ct",,37.948258,-121.986622,,,,,,0
2358,732,"S Larwin Ave + Deerberry Ct",,37.948493,-121.983463,,,,,,0
2359,733,"S Larwin Ave + Juneberry Ct",,37.948748,-121.980960,,,,,,0
2360,734,"S Larwin Ave + Kenneth Rd",,37.950563,-121.977860,,,,,,0
2362,600,"Concord Blvd + Ayers Rd",,37.963252,-121.964807,,,,,,0
2363,601,"Concord Blvd + Concord Ct",,37.966292,-121.968980,,,,,,0
2364,582,"Concord Blvd + Bailey Rd",,37.969573,-121.973450,,,,,,0
2365,583,"Concord Blvd + Thornwood Dr",,37.971890,-121.976528,,,,,,0
2366,584,"Concord Blvd + Jefferson St",,37.973003,-121.978038,,,,,,0
2367,585,"Concord Blvd + Crestwood Cir",,37.973997,-121.980007,,,,,,0
2368,587,"Concord Blvd + Dave Brubeck Park",,37.975677,-121.985668,,,,,,2
2369,588,"Concord Blvd + Mendocino Dr",,37.976138,-121.987198,,,,,,2
2370,590,"Concord Blvd + Sattler Dr",,37.978013,-121.995325,,,,,,0
2371,591,"Concord Blvd + Margo Dr",,37.977958,-121.998127,,,,,,0
2373,596,"Concord Blvd + Alray Dr",,37.977795,-122.006243,,,,,,0
2374,592,"Concord Blvd + Farm Bureau  Rd",,37.977740,-122.010673,,,,,,0
2375,593,"3425 Concord Blvd",,37.977672,-122.014608,,,,,,0
2376,597,"Concord Blvd + Sixth St",,37.977612,-122.018363,,,,,,0
2377,594,"Concord Blvd + Fifth St",,37.977482,-122.020648,,,,,,0
2378,598,"Concord Blvd + Parkside Dr",,37.977457,-122.024045,,,,,,0
2379,595,"Concord Blvd + Second St",,37.977410,-122.027005,,,,,,0
2389,1267,"Alhambra Ave + J St",,37.997325,-122.132467,,,,,,2
2390,1266,"Alhambra Ave + Muir Lodge",,37.995582,-122.132307,,,,,,2
2391,1268,"Alhambra Ave + Walnut Ave",,37.992338,-122.130817,,,,,,2
2394,1017,"Pacheco Blvd + Center Ave",,37.982942,-122.067597,,,,,,2
2395,1448,"Contra Costa Blvd + Chipotle Mexican Grill",,37.979122,-122.066583,,,,,,2
2410,1032,"Court St + Marina Vista",,38.019407,-122.135148,,,,,,2
2443,887,"Concord BART",,37.973905,-122.029270,,,,,,0
2454,888,"Concord BART",,37.974112,-122.029132,,,,,,2
2458,1990,"Galindo St + Sigma Hair Cuts",,37.970468,-122.032310,,,,,,2
2459,1984,"Buskirk Ave + The Crossroads",,37.943288,-122.056610,,,,,,2
2461,1942,"Walnut Creek BART",,37.905773,-122.067198,,,,,,0
2472,1871,"Riviera Ave + Short St",,37.909170,-122.067278,,,,,,0
2474,1828,"N Main St + Sos Dr",,37.918918,-122.065113,,,,,,2
2476,1830,"N Main St + Lesnick Ln",,37.923635,-122.063463,,,,,,2
2481,715,"Monument Blvd + Mohr Ln",,37.947690,-122.051305,,,,,,2
2483,717,"Monument Blvd + Reganti Dr",,37.952443,-122.044390,,,,,,2
2484,718,"Monument Blvd + Lacey Ln",,37.953560,-122.042820,,,,,,2
2485,719,"Monument Blvd + Oak Grove Rd",,37.956810,-122.038132,,,,,,2
2490,1832,"N Main St + Geary Rd",,37.925633,-122.062987,,,,,,2
2493,1835,"N Main St + Third Ave",,37.919688,-122.065053,,,,,,2
2742,1548,"Viking Dr + Diablo Valley College",,37.965910,-122.070637,,,,,,2
2743,1549,"Viking Dr + Norse Dr",,37.965823,-122.075207,,,,,,2
2744,1550,"Viking Dr + Odin Dr",,37.964707,-122.078425,,,,,,2
2745,1490,"Morello Ave + Taylor Blvd",,37.961647,-122.079080,,,,,,2
2746,1543,"Taylor Blvd + Apollo Way",,37.957903,-122.083968,,,,,,2
2747,1530,"Pleasant Hill Rd + Taylor Blvd",,37.953930,-122.087623,,,,,,2
2748,1531,"Pleasant Hill Rd + Linda Ln",,37.952137,-122.084882,,,,,,2
2749,1532,"Pleasant Hill Rd + Strand Ave",,37.950675,-122.083710,,,,,,2
2760,1729,"Buena Vista Ave + Geary Rd",,37.926042,-122.073557,,,,,,0
2761,1730,"Buena Vista Ave + First Ave",,37.923837,-122.073657,,,,,,0
2762,1731,"Buena Vista Ave + Second Ave",,37.922005,-122.073637,,,,,,0
2763,1732,"Buena Vista Ave + Third Ave",,37.919783,-122.073875,,,,,,0
2764,1733,"Buena Vista Ave + San Luis Rd",,37.917447,-122.073657,,,,,,0
2765,1734,"Buena Vista Ave + Alvarado Ave",,37.913820,-122.072603,,,,,,0
2766,1735,"Buena Vista Ave + Sandy Ln",,37.912123,-122.071570,,,,,,0
2767,1736,"Buena Vista Ave + Parkside Dr",,37.909977,-122.070200,,,,,,0
2768,1866,"Parkside Dr + San Juan Ave",,37.910732,-122.068332,,,,,,0
2769,1870,"Riviera Ave + Short St",,37.909213,-122.067398,,,,,,2
2774,1888,"S California Blvd + Mt Diablo Blvd and Olympic Blvd",,37.896547,-122.063385,,,,,,2
2775,1889,"S California Blvd + Botelho Dr",,37.894400,-122.061875,,,,,,2
2776,1795,"Newell Ave + Kaiser Medical Center",,37.892772,-122.059947,,,,,,2
2778,1876,"San Miguel Dr + El Mirador",,37.892798,-122.051742,,,,,,0
2779,1877,"San Miguel Dr + Blackwood Dr",,37.891253,-122.049000,,,,,,0
2780,1047,"San Miguel Dr + Norris Rd",,37.890522,-122.045742,,,,,,0
2781,1048,"San Miguel Dr + Shady Glen Rd",,37.888997,-122.043298,,,,,,0
2782,1049,"San Miguel Dr + Hillview Ter",,37.887593,-122.040317,,,,,,0
2783,1050,"San Miguel Dr + Mountain View Blvd",,37.886040,-122.037198,,,,,,0
2784,1051,"San Miguel Dr + St Lukes Lutheran Church",,37.882917,-122.035390,,,,,,2
2785,1052,"San Miguel Dr + Milton Ave",,37.881192,-122.037833,,,,,,2
2786,1874,"Rudgear Rd + Youngs Ct",,37.879567,-122.036940,,,,,,2
2787,1896,"Stewart Ave + Rudgear Rd",,37.879408,-122.035112,,,,,,2
2788,1901,"Trotter Way + Stewart Ave",,37.875672,-122.031675,,,,,,2
2789,1902,"Trotter Way + Lariat Ln",,37.872907,-122.031913,,,,,,2
2790,1903,"Trotter Way + Bridle Ln",,37.870650,-122.030105,,,,,,2
2791,1904,"Trotter Way + Dapplegray Ln",,37.869398,-122.029608,,,,,,2
2793,1746,"Dapplegray Ln + Stewart Ave",,37.875175,-122.027622,,,,,,2
2794,1747,"Dapplegray Ln + Westmoreland Cir",,37.877440,-122.027225,,,,,,2
2795,1748,"Dapplegray Ln + Rudgear Rd",,37.879173,-122.028098,,,,,,2
2796,1864,"Palmer Rd + Hillendale Ct",,37.880083,-122.029708,,,,,,2
2797,1040,"Palmer Rd + Sylvan Rd",,37.882213,-122.030800,,,,,,2
2798,1041,"Palmer Rd + Hawthorne Dr",,37.884947,-122.032290,,,,,,2
2799,1042,"Palmer Rd + Mountain View Blvd",,37.886723,-122.033323,,,,,,2
2800,1044,"San Miguel Dr + Hillview Ter",,37.887780,-122.040635,,,,,,2
2801,1045,"San Miguel Dr + Shady Glen Rd",,37.889020,-122.043258,,,,,,2
2802,1046,"San Miguel Dr + Adeline Dr",,37.890495,-122.045622,,,,,,2
2803,1797,"Newell Ave + San Miguel Dr",,37.893263,-122.052138,,,,,,2
2804,1798,"Newell Ave + S Broadway",,37.893788,-122.054662,,,,,,2
2805,1808,"S California Blvd + Newell Ave",,37.892947,-122.061198,,,,,,2
2806,1886,"S California Blvd + Botelho Dr",,37.894773,-122.061973,,,,,,2
2807,1737,"S California Blvd + Olympic Blvd",,37.896458,-122.062987,,,,,,2
2808,1809,"N California Blvd + Mt Diablo Blvd",,37.897928,-122.063067,,,,,,2
2810,1811,"N California Blvd + Cole Ave",,37.902165,-122.064497,,,,,,2
2811,1723,"Buena Vista Ave + School Ln",,37.911607,-122.071193,,,,,,0
2812,1724,"Buena Vista Ave + Alvarado Ave",,37.914125,-122.072822,,,,,,0
2813,1728,"Buena Vista Ave + First Ave",,37.924287,-122.073597,,,,,,0
2824,1524,"Pleasant Hill Rd + Valley View Rd",,37.948987,-122.082717,,,,,,2
2826,1526,"Pleasant Hill Rd + Mangini Rd",,37.952460,-122.085022,,,,,,2
2827,1527,"Pleasant Hill Rd + Taylor Blvd",,37.953703,-122.086828,,,,,,2
2828,1540,"Taylor Blvd + Apollo Way",,37.958190,-122.083372,,,,,,2
2829,1489,"Morello Ave + Taylor Blvd",,37.961293,-122.078762,,,,,,2
2830,1545,"Viking Dr + Stubbs Rd",,37.965767,-122.074590,,,,,,2
2831,1546,"Viking Dr + College Park High",,37.965847,-122.070993,,,,,,2
2832,1547,"Viking Dr + Valley View Middle",,37.965902,-122.068232,,,,,,2
2835,1510,"Old Quarry Rd + Chilpancingo Pkwy",,37.974378,-122.068113,,,,,,2
2836,1511,"Old Quarry Rd + Camelback Rd",,37.972113,-122.069225,,,,,,0
2837,1925,"Walnut Blvd + Sierra Dr",,37.903353,-122.052497,,,,,,2
2838,1926,"Walnut Blvd + Homestead Ave",,37.900560,-122.050112,,,,,,2
2839,1927,"Walnut Blvd + Walker Ave",,37.898387,-122.048125,,,,,,2
2840,1928,"Walnut Blvd + Fraser Dr",,37.894423,-122.040933,,,,,,2
2841,1929,"Walnut Blvd + Golden Hill Pl",,37.891038,-122.032310,,,,,,2
2845,1815,"N Civic Dr + Ygnacio Valley Rd",,37.908633,-122.058557,,,,,,0
2846,1945,"Walnut Creek BART",,37.905392,-122.066682,,,,,,0
2847,1742,"Creekside Dr + Near Ct",,37.883982,-122.050848,,,,,,2
2848,1743,"Creekside Dr + Creekside Oaks",,37.886270,-122.052655,,,,,,2
2849,1744,"Creekside Dr + Quail Ct",,37.887490,-122.055060,,,,,,2
2850,1893,"S Main St + Creekside Dr",,37.887685,-122.056033,,,,,,2
2851,1894,"S Main St + Lilac Dr",,37.890507,-122.057503,,,,,,2
2852,1895,"S Main St + Newell Ave",,37.892637,-122.058120,,,,,,2
2853,1883,"S Broadway + Newell Ave",,37.893923,-122.055000,,,,,,2
2857,1716,"N Broadway + Lincoln Ave",,37.901513,-122.060583,,,,,,2
2858,1803,"N Broadway + S Carlback Ave",,37.904247,-122.061080,,,,,,2
2859,1804,"N Broadway + Arroyo Way",,37.905248,-122.061198,,,,,,2
2860,1943,"Walnut Creek BART",,37.905535,-122.067040,,,,,,0
2861,1800,"N Broadway + Ygnacio Valley Rd",,37.906187,-122.061477,,,,,,2
2862,1801,"N Broadway + Carlback Ave",,37.903865,-122.061278,,,,,,2
2863,1802,"N Broadway + Civic Dr",,37.901775,-122.060842,,,,,,2
2865,1880,"S Broadway + Mt Diablo Blvd",,37.897250,-122.057403,,,,,,2
2866,1890,"S Main St + Kaiser Medical Center",,37.890998,-122.057862,,,,,,2
2867,1738,"Creekside Dr + Quail Ct",,37.887383,-122.054900,,,,,,2
2868,977,"Lilac Dr + Newell Ave",,37.890165,-122.064457,,,,,,2
2870,428,"Concord Blvd + Gross Ln",,37.977870,-122.001575,,,,,,0
2872,1837,"N Main St + Parkside Dr",,37.911193,-122.065510,,,,,,2
2874,471,"Waterworld",,37.973082,-122.052178,,,,,,0
3159,1778,"Mitchell Dr + Park And Ride Lot",,37.929713,-122.023927,,,,,,2
3160,1781,"Mitchell Dr + Oak Grove Rd",,37.932018,-122.019733,,,,,,2
3161,1845,"Oak Grove Rd + Shadelands Dr",,37.930132,-122.017210,,,,,,2
3162,1993,"Shadelands Dr + N Via Monte",,37.929162,-122.019018,,,,,,2
3163,1994,"Shadelands Dr + N Wiget Ln",,37.926948,-122.024185,,,,,,2
3164,1844,"N Wiget Ln + Ygnacio Valley Rd",,37.925100,-122.023887,,,,,,2
3165,1936,"Ygnacio Valley Rd + Bancroft Rd",,37.920380,-122.035748,,,,,,2
3172,1862,"Oakland Blvd + Almond Ave",,37.900368,-122.069882,,,,,,2
3173,1863,"Oakland Blvd + Planned Parenthood-Walnut Creek Health Center",,37.897833,-122.070258,,,,,,2
3174,907,"Boulevard Way + Rule Ct",,37.894733,-122.074312,,,,,,2
3175,909,"Boulevard Way + Kinney Dr",,37.890817,-122.080213,,,,,,2
3176,1065,"Tice Valley Blvd + Olympic Blvd",,37.884080,-122.077808,,,,,,2
3177,1899,"Tice Valley Blvd + Del Valle Theatre",,37.877210,-122.073458,,,,,,2
3179,1897,"Tice Valley Blvd + Grace Presbyterian Church",,37.876455,-122.069483,,,,,,2
3180,1873,"Rossmoor Pkwy + Tice Valley Blvd",,37.877222,-122.071372,,,,,,2
3181,1701,"Rossmoor Shopping Center",,37.878872,-122.073238,,,,,,0
3183,1872,"Rolling Hills Dr + Tice Valley Blvd",,37.879610,-122.074472,,,,,,0
3184,1898,"Tice Valley Blvd + Rolling Hills Dr",,37.879952,-122.075425,,,,,,2
3185,1063,"Tice Valley Blvd + Byron Park",,37.881848,-122.076557,,,,,,2
3186,1064,"Tice Valley Blvd + Westborough Ln",,37.883902,-122.077510,,,,,,2
3187,901,"Boulevard Way + Olympic Blvd",,37.885397,-122.077710,,,,,,2
3189,903,"Boulevard Way + Saranap Ave",,37.893502,-122.077013,,,,,,2
3190,904,"Boulevard Way + Palana Ct",,37.894563,-122.074153,,,,,,2
3191,905,"Boulevard Way + Nicholson Rd",,37.895783,-122.071848,,,,,,2
3192,1860,"Oakland Blvd + Mt Diablo Blvd",,37.897448,-122.070120,,,,,,2
3199,1783,"Montego + San Marco Apartments",,37.908693,-122.047867,,,,,,2
3202,1933,"Ygnacio Valley Rd + Chase Bank",,37.918830,-122.037793,,,,,,2
3203,1934,"Ygnacio Valley Rd + Wimbledon Rd",,37.922660,-122.029490,,,,,,2
3204,1839,"N Wiget Ln + Ygnacio Valley Rd",,37.925243,-122.023767,,,,,,2
3205,1991,"Lennon Ln + N Wiget Ln",,37.927635,-122.029807,,,,,,2
3206,1992,"N Wiget Ln + Mitchell Dr",,37.929138,-122.027243,,,,,,2
3208,1930,"Ygnacio Valley Rd + Civic Dr",,37.906563,-122.059967,,,,,,2
3211,1938,"Ygnacio Valley Rd + Homestead Ave",,37.909190,-122.051842,,,,,,2
3217,1066,"Tice Valley Blvd + Montecillo Dr",,37.874795,-122.065232,,,,,,2
3218,1067,"Tice Valley Blvd + Castle Hill Ranch Rd",,37.875533,-122.057107,,,,,,2
3219,1000,"Meadow Rd + Meadow Crest Ln",,37.879627,-122.056550,,,,,,2
3220,1054,"S Main St + Crest Ave",,37.881105,-122.051007,,,,,,2
3221,943,"Crest Ave + Avalon Ct",,37.878550,-122.053093,,,,,,2
3222,1068,"Tice Valley Blvd + Crest Ave",,37.875137,-122.052577,,,,,,2
3224,1055,"S Main St + Rudgear Rd",,37.879363,-122.050272,,,,,,2
3225,946,"Danville Blvd + Horse Trail Ct",,37.875013,-122.047808,,,,,,2
3226,947,"Danville Blvd + Via Robles",,37.871465,-122.045880,,,,,,2
3227,948,"Danville Blvd + Hillgrade Ave",,37.869418,-122.044530,,,,,,2
3228,975,"Hillgrade Ave + Iron Horse Trail",,37.868382,-122.046477,,,,,,2
3229,944,"Crest Ave + Kell Ct",,37.871003,-122.050788,,,,,,2
3230,945,"Crest Ave + Crest Ct",,37.874098,-122.051622,,,,,,2
3235,1751,"Heather Dr + N San Carlos Dr",,37.918385,-122.040517,,,,,,0
3236,1765,"Marchbanks Dr + Heather Dr",,37.917455,-122.043158,,,,,,0
3237,1766,"Marchbanks Dr + Sand Wedge Pl",,37.918012,-122.045622,,,,,,0
3238,1767,"Marchbanks Dr + Kinross Dr",,37.917067,-122.048860,,,,,,0
3239,1768,"Marchbanks Dr + Crosby Ct",,37.913792,-122.048842,,,,,,0
3240,1769,"Marchbanks Dr + Player Ct",,37.912508,-122.047490,,,,,,0
3244,1755,"Locust St + Civic Dr",,37.901052,-122.063027,,,,,,2
3246,1885,"S Broadway + Mt Diablo Blvd",,37.897770,-122.057662,,,,,,2
3248,1205,"Mt Diablo Blvd + Moraga Rd",,37.891888,-122.119492,,,,,,2
3249,1186,"Moraga Rd + Brook St",,37.888662,-122.118360,,,,,,2
3250,1187,"Moraga Rd + O'Conner Dr",,37.886732,-122.118102,,,,,,2
3251,1188,"Moraga Rd + Herman Dr",,37.885300,-122.118360,,,,,,2
3252,1189,"Moraga Rd + Tanglewood Dr",,37.883290,-122.118937,,,,,,2
3253,1347,"Moraga Rd + Via Granada Dr",,37.872378,-122.123982,,,,,,2
3254,1348,"Moraga Rd + Campolindo Dr",,37.868015,-122.125273,,,,,,2
3255,1349,"Moraga Rd + Buckingham Dr",,37.864717,-122.124260,,,,,,2
3256,1350,"Moraga Rd + Kendall Cir",,37.858045,-122.124222,,,,,,2
3257,1362,"St Mary's Rd + Moraga Library",,37.841047,-122.123048,,,,,,2
3258,1363,"St Mary's Rd + Carter Dr",,37.842488,-122.117903,,,,,,2
3259,1322,"St Mary's College",,37.842095,-122.110135,,,,,,2
3260,1364,"St Mary's Rd + Carter Dr",,37.842600,-122.117942,,,,,,2
3261,1365,"St Mary's Rd + Moraga Library",,37.841162,-122.123068,,,,,,2
3262,1356,"Moraga Way + School St",,37.835272,-122.130002,,,,,,2
3263,1357,"Moraga Way + Camino Ricardo",,37.837172,-122.134513,,,,,,2
3264,1405,"Moraga Way + Eastwood Dr",,37.843410,-122.146275,,,,,,2
3265,1394,"Moraga Way + Coral Dr",,37.844718,-122.148738,,,,,,2
3266,1395,"Moraga Way + Whitehall Dr",,37.847058,-122.151937,,,,,,2
3267,1396,"Moraga Way + Southwaite Ct",,37.852030,-122.151718,,,,,,2
3268,1397,"Moraga Way + Ivy Dr",,37.854807,-122.152772,,,,,,2
3269,1398,"Moraga Way + Hall Dr",,37.856365,-122.155175,,,,,,2
3270,1399,"Moraga Way + Ardor Dr",,37.857898,-122.157838,,,,,,2
3272,2129,"Moraga Way + Orchard Rd",,37.859663,-122.163500,,,,,,2
3273,1401,"Moraga Way + Holy Shepherd Lutheran Church",,37.860410,-122.165208,,,,,,2
3274,1403,"Moraga Way + Brookside Dr",,37.865583,-122.174647,,,,,,2
3275,1404,"Moraga Way + Orchard Rd",,37.871227,-122.177288,,,,,,2
3276,1372,"Camino Pablo + Moraga Way",,37.877512,-122.180747,,,,,,2
3278,1371,"Camino Pablo + Brookwood Rd",,37.877370,-122.181382,,,,,,2
3279,1382,"Moraga Way + Orchard Rd",,37.871247,-122.177567,,,,,,2
3280,1383,"Moraga Way + McDonnell Nursery",,37.865405,-122.174727,,,,,,2
3281,1384,"Moraga Way + Casa Vieja",,37.862245,-122.168647,,,,,,2
3282,1385,"Moraga Way + Los Cerros",,37.860433,-122.165547,,,,,,2
3283,1386,"Moraga Way + Oak Dr",,37.858780,-122.161375,,,,,,2
3284,1387,"Moraga Way + Valley View Dr",,37.857652,-122.157698,,,,,,2
3285,1388,"Moraga Way + Woodland Rd",,37.856190,-122.155215,,,,,,2
3286,1389,"Moraga Way + Ivy Dr",,37.854160,-122.152393,,,,,,2
3287,1390,"Moraga Way + Southwaite Ct",,37.851603,-122.151977,,,,,,2
3288,1391,"Moraga Way + El Camino Moraga",,37.847837,-122.152513,,,,,,2
3289,1392,"Moraga Way + El Corte",,37.845118,-122.149732,,,,,,2
3290,1393,"Moraga Way + Estabueno",,37.843542,-122.146732,,,,,,2
3291,1359,"Moraga Way + Miramonte Dr",,37.841067,-122.142102,,,,,,2
3292,1360,"Moraga Way + St Andrews Dr",,37.836993,-122.134592,,,,,,2
3293,1361,"Moraga Way + Viader Dr",,37.834840,-122.129427,,,,,,2
3295,1339,"Moraga Rd + Alta Mesa Dr",,37.837740,-122.125692,,,,,,2
3296,1340,"Moraga Rd + Corliss Dr",,37.846848,-122.125930,,,,,,2
3297,1341,"Moraga Rd + Devin Dr",,37.851215,-122.125175,,,,,,2
3298,1342,"Moraga Rd + Ascot Dr",,37.854798,-122.124857,,,,,,2
3300,1344,"Moraga Rd + Buckingham Dr",,37.864932,-122.124082,,,,,,2
3301,1345,"Moraga Rd + Campolindo Dr",,37.868222,-122.125215,,,,,,2
3302,1346,"Moraga Rd + Via Granada Dr",,37.872362,-122.123823,,,,,,2
3303,1182,"Moraga Rd + Silver Springs Rd",,37.881788,-122.119810,,,,,,2
3304,1183,"Moraga Rd + Oliver Ct",,37.883962,-122.118618,,,,,,2
3305,1184,"Moraga Rd + Moraga Blvd",,37.889938,-122.118360,,,,,,2
3306,1196,"Mt Diablo Blvd + Moraga Rd",,37.892088,-122.119253,,,,,,2
3308,1335,"Canyon Rd + Country Club Dr",,37.833238,-122.128333,,,,,,2
3309,1336,"Canyon Rd + Sanders Dr",,37.831203,-122.130162,,,,,,2
3310,1321,"Camino Pablo + Joaquin Moraga School",,37.826268,-122.129605,,,,,,2
3316,1374,"Ivy Dr + Descanso Dr",,37.853297,-122.146692,,,,,,2
3317,1323,"Camino Pablo + Dickenson Dr",,37.823220,-122.125015,,,,,,2
3318,1324,"Camino Pablo + Hodges Dr",,37.820217,-122.121260,,,,,,2
3319,1325,"Camino Pablo + Shuey Dr",,37.817082,-122.118857,,,,,,2
3321,1327,"Camino Pablo + Larch Ave",,37.815687,-122.118022,,,,,,2
3322,1328,"Camino Pablo + Shuey Dr",,37.816740,-122.118618,,,,,,2
3323,1329,"Camino Pablo + Hodges Dr",,37.820427,-122.121300,,,,,,2
3324,1330,"Camino Pablo + Dickenson Dr",,37.823248,-122.125055,,,,,,2
3325,1331,"Camino Pablo + Duarte Ct",,37.825927,-122.128970,,,,,,2
3327,1338,"Moraga Rd + Moraga Way",,37.834120,-122.127142,,,,,,2
3355,1770,"Marchbanks Dr + Ygnacio Valley Rd",,37.911968,-122.046735,,,,,,0
3356,1772,"Marchbanks Dr + Kinross Dr",,37.917475,-122.048325,,,,,,0
3357,1773,"Marchbanks Dr + Sand Wedge Pl",,37.917968,-122.045423,,,,,,0
3358,1749,"Heather Dr + Marchbanks Dr",,37.917010,-122.041847,,,,,,0
3359,1912,"Walnut Ave + Desert Cir",,37.920047,-122.033165,,,,,,0
3360,1913,"Walnut Ave + Warwick Dr",,37.919077,-122.031515,,,,,,0
3361,1914,"Walnut Ave + Blackstone Dr",,37.916458,-122.027145,,,,,,0
3362,1915,"Walnut Ave + Las Lomas Way",,37.915647,-122.025357,,,,,,0
3363,1916,"Walnut Ave + Autumn Dr",,37.915273,-122.022992,,,,,,0
3364,1917,"Walnut Ave + Wiget Ln",,37.914650,-122.018998,,,,,,0
3365,1918,"Walnut Ave + Cheyenne Dr",,37.914392,-122.017330,,,,,,0
3366,1919,"Walnut Ave + Snyder Ln",,37.914220,-122.014270,,,,,,0
3367,1920,"Walnut Ave + Oak Grove Rd",,37.914253,-122.008667,,,,,,0
3368,1852,"Oak Grove Rd + Arbolado Dr",,37.918425,-122.009918,,,,,,0
3369,1853,"Oak Grove Rd + Valley Vista Rd",,37.921922,-122.010952,,,,,,0
3371,828,"Treat Blvd + Candelero Dr",,37.927715,-122.044847,,,,,,2
3372,1704,"Bancroft Rd + Pomar Way",,37.927687,-122.041252,,,,,,0
3373,1706,"Bancroft Rd + Stratton Cir",,37.921703,-122.035748,,,,,,0
3374,1841,"N Wiget Ln + Mitchell Dr",,37.928065,-122.026112,,,,,,2
3375,1846,"Oak Grove Rd + Encina Camino",,37.926122,-122.013555,,,,,,0
3376,1847,"Oak Grove Rd + Diablo Shadow Dr",,37.925077,-122.012602,,,,,,0
3377,1848,"Oak Grove Rd + Deerpark Dr",,37.923578,-122.011468,,,,,,0
3378,1849,"Oak Grove Rd + Cedro Ln",,37.921267,-122.011012,,,,,,0
3379,1850,"Oak Grove Rd + Arbolado Dr",,37.917538,-122.010377,,,,,,0
3380,1851,"Oak Grove Rd + Walnut Ave",,37.915453,-122.008707,,,,,,0
3381,1999,"Walnut Ave + Rock Creek Ct",,37.914375,-122.008687,,,,,,0
3382,1905,"Walnut Ave + Hurlstone Ct",,37.914388,-122.011170,,,,,,0
3383,1907,"Walnut Ave + Dover Dr",,37.915488,-122.023390,,,,,,0
3384,1908,"Walnut Ave + Las Lomas Way",,37.915795,-122.025357,,,,,,0
3385,1909,"Walnut Ave + Blackstone Dr",,37.916700,-122.027303,,,,,,0
3386,1910,"Walnut Ave + Warwick Dr",,37.919252,-122.031575,,,,,,0
3388,1854,"Oak Grove Rd + Deerpark Dr",,37.923408,-122.011270,,,,,,0
3389,1855,"Oak Grove Rd + Diablo Shadow Dr",,37.924922,-122.012283,,,,,,0
3391,1857,"Oak Grove Rd + Shadelands Dr",,37.929900,-122.016833,,,,,,2
3392,1782,"Mitchell Dr + Oak Grove Rd",,37.931992,-122.020012,,,,,,2
3393,1779,"Mitchell Dr + Park And Ride Lot",,37.929813,-122.023967,,,,,,2
3395,1707,"Bancroft Rd + Stratton Rd",,37.922637,-122.036383,,,,,,0
3396,1708,"Bancroft Rd + Banbury Rd",,37.924325,-122.037893,,,,,,0
3397,1709,"Bancroft Rd + Amberwood Ln",,37.927035,-122.040357,,,,,,0
3398,825,"Treat Blvd + Candelero Dr",,37.927540,-122.045503,,,,,,2
3399,826,"Treat Blvd + Cherry Ln",,37.926587,-122.050788,,,,,,2
3402,777,"Port Chicago Hwy + Panoramic Dr",,38.004820,-122.023727,,,,,,2
3404,482,"Arnold Industrial Way + Concord Adult Homeless Shelter",,38.006393,-122.037933,,,,,,2
3406,1977,"Morello Ave + Muir Rd",,37.990415,-122.101412,,,,,,2
3407,1978,"Morello Ave + Center Ave",,37.986195,-122.103757,,,,,,2
3408,922,"Center Ave + Morello Ave",,37.986593,-122.104710,,,,,,2
3409,923,"Center Ave + Rolling Hill Way",,37.988988,-122.106618,,,,,,2
3410,427,"Center Ave + Veterans Dr",,37.992680,-122.113055,,,,,,2
3411,925,"Center Ave + Veterans Clinic Driveway",,37.992362,-122.114783,,,,,,2
3412,1249,"VA Clinic",,37.994032,-122.114485,,,,,,2
3413,1314,"Muir Rd + Center Ave",,37.995013,-122.118538,,,,,,2
3417,1028,"Pacheco Blvd + Bush St",,38.012885,-122.120803,,,,,,2
3418,1029,"Pacheco Blvd + Arreba St",,38.014400,-122.126307,,,,,,2
3419,1039,"Martinez Amtrak",,38.018577,-122.139182,,,,,,2
3421,1003,"Court St + Ward St",,38.017662,-122.133598,,,,,,2
3422,1004,"Pacheco Blvd + Arreba St",,38.014305,-122.126287,,,,,,2
3423,1007,"Pacheco Blvd + Bush St",,38.012830,-122.120585,,,,,,2
3424,1008,"Pacheco Blvd + Peach St",,38.012353,-122.116830,,,,,,2
3425,1009,"Pacheco Blvd + Santa Fe Ave",,38.012267,-122.111445,,,,,,2
3429,1302,"Howe Rd + Parkway Dr",,38.001005,-122.113928,,,,,,2
3430,1303,"Howe Rd + Contra Costa Housing Choice Voucher Office",,37.999392,-122.116850,,,,,,2
3431,927,"Pine St + Douglas Dr",,37.995943,-122.121002,,,,,,2
3432,928,"Center Ave + Muir Station",,37.992447,-122.118658,,,,,,2
3433,929,"Center Ave + Veterans Ct",,37.992470,-122.112797,,,,,,2
3434,930,"Center Ave + Kaiser Dr",,37.990840,-122.110213,,,,,,2
3435,931,"Center Ave + Granite Ct",,37.989378,-122.107392,,,,,,2
3436,932,"Center Ave + Snow Dr",,37.987157,-122.105048,,,,,,2
3437,1975,"Morello Ave + Center Ave",,37.986247,-122.103538,,,,,,2
3438,1976,"Morello Ave + Muir Rd",,37.990912,-122.100837,,,,,,2
3441,780,"Port Chicago Hwy + Arnold Industrial Way",,38.011432,-122.023350,,,,,,2
3443,1513,"Old Quarry Rd + Chilpancingo Pkwy",,37.974367,-122.067973,,,,,,2
3444,1447,"Contra Costa Blvd + S and G Carpet and More",,37.978745,-122.066245,,,,,,2
3452,936,"Center Ave + Vine Hill Way",,37.984547,-122.098592,,,,,,2
3453,937,"Center Ave + Redwood Dr",,37.983648,-122.090473,,,,,,2
3454,938,"Center Ave + Lyle Ct",,37.983967,-122.086093,,,,,,2
3455,939,"Center Ave + Hidden Lakes Dr",,37.983330,-122.079220,,,,,,2
3456,940,"Center Ave + Flame Dr",,37.983330,-122.073875,,,,,,2
3457,941,"Center Ave + Blackwood Dr",,37.983347,-122.069862,,,,,,2
3458,1435,"Chilpancingo Pkwy + Contra Costa Blvd",,37.975352,-122.066543,,,,,,2
3479,778,"Port Chicago Hwy + Arnold Industrial Way",,38.011765,-122.023152,,,,,,2
3480,492,"Bates Ave + Port Chicago Hwy",,38.015138,-122.025953,,,,,,2
3484,1018,"Pacheco Blvd + Center Ave",,37.982877,-122.067358,,,,,,2
3503,1456,"Contra Costa Blvd + Harriet Dr",,37.959873,-122.061517,,,,,,2
3504,1466,"Ellinwood Dr + Longbrook Way",,37.958805,-122.058020,,,,,,2
3509,1457,"Contra Costa Blvd + Ellinwood Dr",,37.957852,-122.060960,,,,,,2
3510,1458,"Contra Costa Blvd + Doray Dr",,37.955050,-122.060305,,,,,,2
3511,1459,"Contra Costa Blvd + Doris Dr",,37.952983,-122.060325,,,,,,2
3512,1460,"Contra Costa Blvd + Vivian Dr",,37.951422,-122.060325,,,,,,2
3513,1966,"Contra Costa Blvd + Boyd Rd",,37.942612,-122.060643,,,,,,2
3515,1428,"Boyd Rd + Sequoia Elementary School",,37.943542,-122.068868,,,,,,2
3516,1518,"Patterson Blvd + Roberta Ave",,37.938825,-122.070278,,,,,,2
3517,1519,"Patterson Blvd + Santa Barbara Rd",,37.936187,-122.072345,,,,,,2
3518,1503,"Oak Park Blvd + Patterson Blvd",,37.933683,-122.072345,,,,,,2
3519,1504,"Oak Park Blvd + Monte Cresta Dr",,37.933688,-122.069942,,,,,,2
3520,1505,"Oak Park Blvd + Via Del Sol",,37.933120,-122.064657,,,,,,2
3521,1507,"Oak Park Blvd + Pleasant Valley Dr",,37.933330,-122.062113,,,,,,2
3522,1445,"Coggins Dr + Park Vista Apartments",,37.933167,-122.056550,,,,,,2
3524,1444,"Coggins Dr + Villa Montanaro",,37.933370,-122.056410,,,,,,2
3525,1493,"Oak Park Blvd + Hook Ave",,37.933398,-122.062908,,,,,,2
3526,1494,"Oak Park Blvd + Monticello Ave",,37.933688,-122.068392,,,,,,2
3527,1495,"Oak Park Blvd + Monte Cresta Dr",,37.933772,-122.069942,,,,,,2
3528,1496,"Oak Park Blvd + Patterson Blvd",,37.933803,-122.072802,,,,,,2
3529,1514,"Patterson Blvd + Santa Barbara Rd",,37.936068,-122.072305,,,,,,2
3530,1515,"Patterson Blvd + Roberta Rd",,37.939295,-122.070160,,,,,,2
3531,1516,"Patterson Blvd + Soule Ave",,37.941302,-122.069583,,,,,,2
3532,1425,"Boyd Rd + Patterson Rd",,37.943527,-122.069067,,,,,,2
3536,1439,"Cleaveland Rd + Boyd Rd",,37.943765,-122.063882,,,,,,2
3537,1440,"Cleaveland Rd + Crescent Plz",,37.944948,-122.064140,,,,,,2
3538,1487,"Gregory Ln + Cleaveland Rd",,37.947862,-122.063802,,,,,,2
3539,1488,"Gregory Ln + Contra Costa Blvd",,37.947885,-122.061358,,,,,,2
3540,1455,"Contra Costa Blvd + Safeway",,37.949268,-122.059967,,,,,,2
3541,1452,"Contra Costa Blvd + Beth Dr",,37.955253,-122.060047,,,,,,2
3542,1453,"Contra Costa Blvd + Dexter Dr",,37.957820,-122.060682,,,,,,2
3543,1454,"Contra Costa Blvd + Harriet Dr",,37.960287,-122.061318,,,,,,2
3544,605,"Contra Costa Blvd + Sun Valley Blvd and Viking Dr",,37.965338,-122.062312,,,,,,2
3545,602,"Contra Costa Blvd + Viking Dr",,37.967822,-122.062768,,,,,,2
3548,1443,"Cleaveland Rd + Boyd Rd",,37.943728,-122.064100,,,,,,0
3555,1470,"Golf Club Rd + College Dr",,37.971520,-122.064775,,,,,,0
3558,449,"Clayton Rd + El Camino Dr",,37.949102,-121.951535,,,,,,2
3559,853,"Washington Blvd + Clayton Rd",,37.950830,-121.956780,,,,,,2
3568,451,"Clayton Rd + Washington Blvd",,37.951752,-121.956145,,,,,,2
3574,886,"Concord BART",,37.973460,-122.029588,,,,,,2
3575,775,"Port Chicago Hwy + Concord Blvd",,37.977760,-122.029192,,,,,,2
3576,564,"Clayton Rd + Pine St",,37.970507,-122.044112,,,,,,2
3577,668,"Market St + Clayton Rd and Meadow Ln",,37.967730,-122.047768,,,,,,2
3578,675,"Meadow Ln + Gelbke Ln",,37.960705,-122.042840,,,,,,2
3579,676,"Meadow Ln + Robin Ln",,37.958937,-122.041310,,,,,,2
3580,736,"Oak Grove Rd + Gilly Ln",,37.951255,-122.036742,,,,,,2
3581,737,"Oak Grove Rd + Junction Dr",,37.946303,-122.032132,,,,,,2
3582,738,"Oak Grove Rd + David Ave",,37.943702,-122.029747,,,,,,2
3585,615,"David Ave + Mohr Ln",,37.936095,-122.043178,,,,,,2
3586,616,"David Ave + Bancroft Rd",,37.934685,-122.046198,,,,,,2
3587,1713,"Bancroft Rd + Minert Rd",,37.933592,-122.046675,,,,,,2
3589,1710,"Bancroft Rd + Gil Port Ln",,37.930350,-122.043298,,,,,,2
3590,1711,"Bancroft Rd + Faith Christian Fellowship",,37.932317,-122.045105,,,,,,2
3593,1776,"Minert Rd + Weaver Ln",,37.939573,-122.035450,,,,,,2
3594,1777,"Minert Rd + Litkin Dr",,37.942195,-122.030323,,,,,,2
3595,739,"Oak Grove Rd + Risdon Rd",,37.944535,-122.030263,,,,,,2
3596,740,"Oak Grove Rd + Rockne Ln",,37.946303,-122.031893,,,,,,2
3597,741,"Oak Grove Rd + Chalomar Rd",,37.947813,-122.033303,,,,,,2
3598,742,"Oak Grove Rd + Whitman Rd",,37.949013,-122.034377,,,,,,2
3599,743,"Oak Grove Rd + Pear Dr",,37.953182,-122.037258,,,,,,2
3601,678,"Meadow Ln + Lodge Dr",,37.958268,-122.040537,,,,,,2
3603,681,"Meadow Ln + Blackfield Dr",,37.964182,-122.045880,,,,,,2
3604,565,"Clayton Rd + Pine St",,37.969700,-122.045323,,,,,,2
3605,566,"Clayton Rd + Detroit Ave",,37.970868,-122.042820,,,,,,2
3606,630,"Fry Way + Clayton Rd",,37.972527,-122.040813,,,,,,2
3607,695,"Mira Vista Ter + Salvio St",,37.975665,-122.037575,,,,,,2
3608,786,"Salvio St + Galindo St",,37.976520,-122.036702,,,,,,2
3609,787,"Salvio St + Grant St",,37.977902,-122.033742,,,,,,2
3610,626,"East St + Willow Pass Rd",,37.978332,-122.030920,,,,,,2
3616,1982,"Oak Grove Rd + Smith Ln",,37.941233,-122.027502,,,,,,2
3617,1987,"Oak Grove Rd + Treat Blvd",,37.938790,-122.025277,,,,,,2
3618,821,"Treat Blvd + Royal Anne Ln",,37.936625,-122.029350,,,,,,2
3619,822,"Treat Blvd + Winton Dr",,37.934662,-122.033165,,,,,,2
3620,823,"Treat Blvd + Arkell Rd",,37.933250,-122.035907,,,,,,2
3622,829,"Treat Blvd + Carriage Dr",,37.930827,-122.039682,,,,,,2
3623,830,"Treat Blvd + Arkell Rd",,37.932572,-122.036702,,,,,,2
3624,831,"Treat Blvd + Winton Dr",,37.934510,-122.032907,,,,,,2
3625,1988,"Oak Grove Rd + Treat Blvd",,37.939430,-122.025515,,,,,,2
3626,1983,"Oak Grove Rd + Smith Ln",,37.941488,-122.027463,,,,,,2
3630,708,"Monument Blvd + Oakmead Ave",,37.968422,-122.032290,,,,,,2
3631,810,"Systron Dr + Monument Blvd",,37.964087,-122.030860,,,,,,2
3632,789,"San Miguel Rd + Sunny Acres Mobile Home and RV Park",,37.962437,-122.029728,,,,,,2
3633,790,"San Miguel Rd + Tioga Rd",,37.960137,-122.028555,,,,,,2
3634,792,"San Miguel Rd + Galloway Dr",,37.957628,-122.026985,,,,,,2
3635,793,"San Miguel Rd + Tioga Rd",,37.960315,-122.028655,,,,,,2
3636,794,"San Miguel Rd + Sunny Acres Mobile Home and RV Prk",,37.962680,-122.029867,,,,,,2
3637,811,"Systron Dr + Monument Blvd",,37.964248,-122.031038,,,,,,2
3638,709,"Monument Blvd + Cowell Rd",,37.968155,-122.032032,,,,,,2
3642,746,"Oak St + Galindo St",,37.972257,-122.032470,,,,,,2
3643,657,"Laguna St + Ellis Park",,37.970337,-122.035588,,,,,,2
3644,656,"Laguna St + Detroit Ave",,37.968293,-122.040575,,,,,,2
3645,617,"Detroit Ave + Sunshine Dr",,37.965313,-122.038370,,,,,,2
3646,618,"Detroit Ave + Walters Way",,37.962342,-122.035728,,,,,,2
3648,710,"Monument Blvd + Meadow Ln",,37.957037,-122.038192,,,,,,2
3649,711,"Monument Blvd + Virginia Ln",,37.954367,-122.042007,,,,,,2
3650,712,"Monument Blvd + Lacey Ln",,37.953595,-122.043118,,,,,,2
3651,696,"Mohr Ln + Monument Blvd",,37.947397,-122.050590,,,,,,2
3652,697,"Mohr Ln + Del Rio Cir",,37.946042,-122.047728,,,,,,2
3653,698,"Mohr Ln + Del Rio Cir",,37.945728,-122.045483,,,,,,2
3654,699,"Mohr Ln + Del Rio Ct",,37.943780,-122.045105,,,,,,2
3655,700,"Mohr Ln + Wicket Ct",,37.941572,-122.045185,,,,,,2
3656,701,"Mohr Ln + Bentley St",,37.939077,-122.045543,,,,,,2
3658,1712,"Bancroft Rd + Minert Rd",,37.933740,-122.046477,,,,,,2
3659,702,"Mohr Ln + Nuala St",,37.939565,-122.045503,,,,,,2
3660,704,"Mohr Ln + Hidden Creek Town Homes",,37.944620,-122.044430,,,,,,2
3661,705,"Mohr Ln + Del Rio Cir",,37.945852,-122.045523,,,,,,2
3665,620,"Detroit Ave + Monument Blvd",,37.960697,-122.034038,,,,,,2
3666,621,"Detroit Ave + Walters Way",,37.962830,-122.035907,,,,,,2
3668,623,"Detroit Ave + Laguna St",,37.967905,-122.040933,,,,,,2
3669,655,"Laguna St + Ellis St",,37.969668,-122.036980,,,,,,2
3682,636,"Grant St + Concord Blvd",,37.976110,-122.032092,,,,,,2
3683,638,"Grant St + Bonifacio St",,37.979810,-122.034853,,,,,,2
3691,866,"Willow Pass Rd + Granada Dr",,37.986143,-122.010673,,,,,,2
3692,867,"Willow Pass Rd + San Vincente Dr",,37.987308,-122.009025,,,,,,2
3693,868,"Willow Pass Rd + Ashdale Dr",,37.988905,-122.006840,,,,,,2
3694,658,"Landana Dr + Willow Pass Rd",,37.989823,-122.005350,,,,,,2
3695,659,"Landana Dr + Village Rd",,37.987033,-122.001038,,,,,,2
3696,660,"Landana Dr + Sandalwood Dr",,37.984630,-121.999617,,,,,,2
3697,661,"Landana Dr + Silverwood Dr",,37.983303,-121.999040,,,,,,2
3698,662,"Landana Dr + Cottonwood Dr",,37.980827,-121.996973,,,,,,2
3699,844,"West St + Forestview Ave",,37.976603,-121.992027,,,,,,2
3700,845,"West St + Glendale Ave",,37.974962,-121.993973,,,,,,2
3701,846,"West St + Clayton Way",,37.973400,-121.995900,,,,,,2
3702,847,"West St + Chestnut Ave",,37.972513,-121.996993,,,,,,2
3703,848,"West St + Wesley Ct",,37.970018,-121.999973,,,,,,2
3707,812,"Treat Blvd + Bel Air Dr",,37.962377,-121.994192,,,,,,2
3708,815,"Treat Blvd + Thompson Rd",,37.952300,-122.005290,,,,,,2
3709,817,"Treat Blvd + San Miguel Rd",,37.945533,-122.015025,,,,,,2
3710,818,"Treat Blvd + San Simeon Dr",,37.942973,-122.018800,,,,,,2
3711,819,"Treat Blvd + Blarney Ave",,37.941000,-122.021720,,,,,,2
3712,820,"Treat Blvd + Oak Grove Rd",,37.938865,-122.024920,,,,,,2
3713,1858,"Oak Rd + Charter Oak Cir",,37.920078,-122.058795,,,,,,2
3714,1820,"N Civic Dr + Walden Rd",,37.916763,-122.059352,,,,,,2
3715,1821,"N Civic Dr + Deodora Way",,37.914975,-122.059648,,,,,,2
3716,1822,"N Civic Dr + Parkside Dr",,37.912305,-122.060127,,,,,,2
3717,1823,"N Civic Dr + Pine St",,37.910407,-122.059550,,,,,,2
3718,1824,"N Civic Dr + Brio Dr",,37.908748,-122.058755,,,,,,2
3719,1825,"N Civic Dr + Ygnacio Valley Rd",,37.907155,-122.058855,,,,,,2
3721,1814,"N Civic Dr + Ygnacio Valley Rd",,37.907278,-122.058597,,,,,,2
3722,1816,"N Civic Dr + Pine St",,37.910668,-122.059490,,,,,,2
3723,1817,"N Civic Dr + Parkside Dr",,37.912687,-122.059808,,,,,,2
3724,1818,"N Civic Dr + Deodora Way",,37.915063,-122.059450,,,,,,2
3725,1859,"Oak Rd + Walden Park",,37.921132,-122.058338,,,,,,2
3726,832,"Treat Blvd + Oak Grove Rd",,37.938308,-122.025575,,,,,,2
3727,833,"Treat Blvd + Blarney Ave",,37.941273,-122.020927,,,,,,2
3728,834,"Treat Blvd + San Simeon Dr",,37.942903,-122.018522,,,,,,2
3729,835,"Treat Blvd + Citrus Ave",,37.945057,-122.015323,,,,,,2
3730,836,"Treat Blvd + Navaronne Way",,37.946773,-122.012163,,,,,,2
3731,837,"Treat Blvd + Kingswood Dr",,37.950480,-122.005428,,,,,,2
3734,840,"Treat Blvd + Bel Air Dr",,37.962325,-121.994013,,,,,,2
3738,849,"West St + Salem St",,37.970695,-121.999120,,,,,,2
3739,850,"West St + Denver St",,37.971847,-121.997748,,,,,,2
3740,851,"West St + Wilson Ln",,37.974298,-121.994708,,,,,,2
3741,852,"West St + El Dorado Middle School",,37.976782,-121.991788,,,,,,2
3743,664,"Landana Dr + Cottonwood Dr",,37.980763,-121.996755,,,,,,2
3744,665,"Landana Dr + Beechwood Dr",,37.983083,-121.998862,,,,,,2
3745,666,"Landana Dr + Village Rd",,37.987082,-122.001018,,,,,,2
3746,667,"Landana Dr + Larkspur Dr",,37.989402,-122.004535,,,,,,2
3747,870,"Willow Pass Rd + San Vincente Dr",,37.987237,-122.009383,,,,,,2
3751,874,"Willow Pass Rd + Esperanza Dr",,37.980760,-122.021940,,,,,,2
3752,765,"Parkside Dr + Concord Civic Center",,37.980938,-122.025337,,,,,,2
3753,783,"Salvio St + Date St",,37.980672,-122.028437,,,,,,2
3761,782,"Port Chicago Hwy + Olivera Rd",,37.995912,-122.030522,,,,,,2
3765,771,"Peralta Rd + Dalis Dr",,37.999730,-122.047668,,,,,,2
3766,796,"Solano Way + Hilltop Rd",,37.994345,-122.051980,,,,,,2
3767,797,"Solano Way + Solano Ct",,37.992637,-122.049655,,,,,,2
3768,798,"Solano Way + Westgate Ave",,37.990642,-122.045343,,,,,,2
3769,799,"Solano Way + Grant St",,37.989640,-122.041947,,,,,,2
3770,642,"Grant St + Mildred St",,37.986485,-122.039185,,,,,,2
3771,643,"Grant St + Gill Dr",,37.984257,-122.037555,,,,,,2
3772,644,"Grant St + High School Ave",,37.984062,-122.036007,,,,,,2
3773,625,"East St + Bacon St",,37.982508,-122.033980,,,,,,2
3774,568,"Colfax St + Pacheco St",,37.979182,-122.032987,,,,,,2
3776,624,"East St + Bacon St",,37.982618,-122.033920,,,,,,2
3777,639,"Grant St + High School Ave",,37.984013,-122.035290,,,,,,2
3778,640,"Grant St + Karren St",,37.985687,-122.038510,,,,,,2
3779,641,"Grant St + Fairfield Ave",,37.987475,-122.039582,,,,,,2
3780,800,"Solano Way + Grant St",,37.989752,-122.042047,,,,,,2
3781,801,"Solano Way + Hillside Ave",,37.990808,-122.045722,,,,,,2
3782,802,"Solano Way + Avon Ave",,37.992712,-122.049715,,,,,,2
3783,803,"Solano Way + Hilltop Rd",,37.994402,-122.051980,,,,,,2
3784,804,"Solano Way + Olivera Rd",,37.998577,-122.052893,,,,,,2
3785,753,"Olivera Rd + UPS Customer Center Concord",,37.998685,-122.050390,,,,,,2
3786,754,"Olivera Rd + Peralta Rd",,37.998493,-122.047828,,,,,,2
3787,755,"Olivera Rd + Terraza Del Sol",,37.998203,-122.045007,,,,,,2
3788,756,"Olivera Rd + Grant St",,37.997683,-122.042285,,,,,,2
3789,757,"Olivera Rd + Hillsborough Dr",,37.996532,-122.036602,,,,,,2
3790,758,"Olivera Rd + Thunderbird Dr",,37.996010,-122.034178,,,,,,2
3791,759,"Olivera Rd + Welch Ct",,37.995622,-122.032270,,,,,,2
3792,776,"Port Chicago Hwy + Olivera Rd",,37.995505,-122.030562,,,,,,2
3794,889,"Concord BART",,37.974280,-122.029110,,,,,,2
3799,1952,"Concord Ave + Concord Honda",,37.979643,-122.046377,,,,,,2
3804,646,"John Glenn Dr + Concord Ave",,37.979580,-122.055497,,,,,,2
3805,647,"John Glenn Dr + Burnett Ave",,37.977915,-122.054365,,,,,,2
3806,631,"Galaxy Way + Meridian Park Blvd",,37.976075,-122.056152,,,,,,2
3807,1960,"Diamond Blvd + Galaxy Way",,37.975248,-122.058933,,,,,,2
3810,1019,"Pacheco Blvd + S Buchanan Cir",,37.987877,-122.071053,,,,,,2
3811,1020,"Pacheco Blvd + N Buchanan Cir",,37.990745,-122.073258,,,,,,2
3812,1315,"Muir Rd + Sweetwater Dr",,37.991230,-122.078523,,,,,,2
3813,1316,"Muir Rd + Fountainhead Ct",,37.990550,-122.084167,,,,,,2
3815,1284,"Arnold Dr + Milano Way",,37.991698,-122.087187,,,,,,2
3816,1285,"Arnold Dr + Holiday Hills Dr",,37.991373,-122.090545,,,,,,2
3817,1286,"Arnold Dr + Fig Tree Ln",,37.991162,-122.093962,,,,,,2
3818,1287,"Arnold Dr + Muir Parkway Offices",,37.992883,-122.098532,,,,,,2
3819,1305,"Morello Ave + Arnold Dr",,37.994798,-122.100438,,,,,,2
3820,1306,"Morello Ave + Midhill Rd",,37.997902,-122.100418,,,,,,2
3821,1307,"Morello Ave + Marie Ave",,38.003932,-122.101790,,,,,,2
3822,1308,"Morello Ave + Gilrix Ct",,38.008093,-122.101790,,,,,,2
3823,1309,"Morello Ave + Pacheco Blvd",,38.010183,-122.101790,,,,,,2
3826,1010,"Pacheco Blvd + Ace Truckbox Center Martinez",,38.011607,-122.104353,,,,,,2
3827,1011,"Pacheco Blvd + Morello Ave",,38.010728,-122.102088,,,,,,2
3828,1310,"Morello Ave + Marie Ave",,38.004037,-122.101830,,,,,,2
3829,1311,"Morello Ave + Village Oaks Dr",,37.997388,-122.100280,,,,,,2
3831,1280,"Arnold Dr + Muir Parkway Offices",,37.991595,-122.097837,,,,,,2
3832,1281,"Arnold Dr + Fig Tree Ln",,37.991063,-122.094062,,,,,,2
3833,1282,"Arnold Dr + Holiday Hills Dr",,37.991357,-122.089848,,,,,,2
3834,1283,"Arnold Dr + Glacier Dr",,37.991692,-122.086730,,,,,,2
3835,1318,"Muir Rd + Glacier Dr",,37.990308,-122.086352,,,,,,2
3836,1319,"Muir Rd + Fountainhead Ct",,37.990415,-122.083432,,,,,,2
3837,1320,"Muir Rd + Sweetwater Dr",,37.991222,-122.077808,,,,,,2
3838,1015,"Pacheco Blvd + Carolos Dr",,37.990395,-122.073318,,,,,,2
3839,1016,"Pacheco Blvd + Pacheco Manor Dr",,37.988655,-122.071928,,,,,,2
3840,2096,"Pacheco Blvd + Aspen Dr",,37.986998,-122.070438,,,,,,0
3841,1961,"Diamond Blvd + Burnett Ave",,37.976273,-122.059888,,,,,,2
3850,570,"Concord Ave + Commerce Ave",,37.979225,-122.045225,,,,,,2
3854,632,"Galaxy Way + Meridian Park Blvd",,37.976075,-122.055835,,,,,,2
3855,569,"Concord Ave + Concord Airport Plaza Building A",,37.980708,-122.053390,,,,,,2
3859,1891,"S Main St + Creekside Dr",,37.886918,-122.055755,,,,,,2
3860,949,"Danville Blvd + Livorna Rd",,37.861872,-122.039920,,,,,,2
3861,950,"Danville Blvd + Ridgewood Rd",,37.856953,-122.036900,,,,,,2
3862,951,"Danville Blvd + St Alphonsus Ct",,37.853440,-122.034655,,,,,,2
3863,952,"Danville Blvd + Alamo Plaza",,37.851508,-122.033443,,,,,,2
3867,956,"Danville Blvd + Hemme Ave",,37.841345,-122.025018,,,,,,2
3868,957,"Danville Blvd + Camille Ave",,37.837450,-122.020608,,,,,,2
3869,978,"Danville Blvd + Wayne Ave",,37.834863,-122.017132,,,,,,2
3870,958,"Danville Blvd + Hartford Rd",,37.832013,-122.013873,,,,,,2
3871,959,"Danville Blvd + Del Amigo Rd",,37.828548,-122.008150,,,,,,2
3873,1117,"Railroad Ave + Love Ln and Linda Mesa Ave",,37.823518,-122.003283,,,,,,2
3874,1118,"Railroad Ave + Prospect Ave",,37.820880,-122.000323,,,,,,2
3876,1124,"San Ramon Valley Blvd + Sonora Ave",,37.817637,-121.996655,,,,,,2
3877,1125,"San Ramon Valley Blvd + Danville Town and Country Shopping Center",,37.815230,-121.996397,,,,,,2
3878,1126,"San Ramon Valley Blvd + Livery-Mercantile",,37.813370,-121.995900,,,,,,2
3881,1077,"Camino Ramon + San Thomas Way",,37.804118,-121.989343,,,,,,2
3882,1078,"Camino Ramon + El Capitan Dr",,37.799617,-121.987238,,,,,,2
3883,1079,"Camino Ramon + Saint Patricks Dr",,37.796053,-121.984517,,,,,,2
3884,1080,"Camino Ramon + Greenbrook Dr",,37.792985,-121.982708,,,,,,2
3885,1127,"San Ramon Valley Blvd + Ridgeland Dr",,37.789488,-121.982450,,,,,,2
3886,1664,"San Ramon Valley Blvd + Hooper Dr",,37.784973,-121.980363,,,,,,2
3887,1665,"San Ramon Valley Blvd + Purdue Rd",,37.782447,-121.979232,,,,,,2
3888,1650,"Fostoria Way + Crow Canyon Pl",,37.781020,-121.973192,,,,,,2
3889,1611,"Camino Ramon + Fostoria Way",,37.781763,-121.970490,,,,,,2
3890,1612,"Camino Ramon + Crow Canyon Rd",,37.780238,-121.969655,,,,,,2
3891,1613,"Camino Ramon + Crow Canyon Rd",,37.778040,-121.968205,,,,,,2
3892,1614,"Camino Ramon + Norris Canyon Rd",,37.774747,-121.965105,,,,,,2
3893,1699,"San Ramon Transit Center",,37.770212,-121.960297,,,,,,2
3894,1643,"Executive Pkwy + Camino Ramon and Bishop Dr",,37.769287,-121.964032,,,,,,2
3895,1644,"Executive Pkwy + Bishop Dr",,37.767315,-121.968880,,,,,,2
3896,1680,"San Ramon Valley Blvd + Twin Canyon Shopping Center",,37.772600,-121.974245,,,,,,2
3897,1667,"San Ramon Valley Blvd + Courtyard Center",,37.774718,-121.976192,,,,,,2
3898,1622,"Crow Canyon Rd + Twin Creeks Dr",,37.775060,-121.980782,,,,,,2
3899,1623,"Crow Canyon Rd + Old Crow Canyon Rd",,37.774405,-121.983762,,,,,,2
3900,1624,"Crow Canyon Rd + Deerwood Rd",,37.773565,-121.987953,,,,,,2
3901,1580,"Bollinger Canyon Rd + Crow Canyon Rd",,37.772302,-121.995960,,,,,,2
3902,1581,"Bollinger Canyon Rd + Anza Ct",,37.769720,-121.993655,,,,,,2
3903,1582,"Bollinger Canyon Rd + Dos Rios Dr",,37.767570,-121.988648,,,,,,2
3904,1583,"Bollinger Canyon Rd + Marsh Dr",,37.766457,-121.986762,,,,,,2
3905,1584,"Bollinger Canyon Rd + Ascension Dr",,37.765300,-121.984715,,,,,,2
3906,1586,"Bollinger Canyon Rd + Paddock Dr",,37.760222,-121.979013,,,,,,2
3907,1587,"Bollinger Canyon Rd + Morgan Dr",,37.759265,-121.977045,,,,,,2
3908,1588,"Bollinger Canyon Rd + Talavera Dr",,37.759337,-121.970867,,,,,,2
3909,1668,"San Ramon Valley Blvd + Bollinger Canyon Rd",,37.759050,-121.967985,,,,,,2
3910,1679,"San Ramon Valley Blvd + Harness Dr",,37.757537,-121.965900,,,,,,2
3911,1669,"San Ramon Valley Blvd + Barnwood Dr",,37.754575,-121.962562,,,,,,2
3912,1670,"San Ramon Valley Blvd + Morgan Dr",,37.751218,-121.960475,,,,,,2
3913,1653,"Montevideo Dr + San Ramon Valley Blvd",,37.747300,-121.957118,,,,,,2
3914,1683,"Tareyton Ave + Bridgeport Ave",,37.742937,-121.954018,,,,,,0
3915,1684,"Tareyton Ave + Pownal Ave",,37.739842,-121.951853,,,,,,0
3916,1685,"Tareyton Ave + Pine Valley Rd",,37.737310,-121.949965,,,,,,0
3917,1557,"Alcosta Blvd + San Ramon Valley Blvd",,37.722930,-121.941740,,,,,,0
3918,1558,"Alcosta Blvd + Davona Dr",,37.724202,-121.936573,,,,,,0
3919,1559,"Alcosta Blvd + Elmwood Dr",,37.728327,-121.933673,,,,,,0
3920,1689,"Village Pkwy + Elmwood Dr",,37.727435,-121.930693,,,,,,2
3921,1149,"Village Pkwy + Kimball Ave",,37.725842,-121.929322,,,,,,2
3922,1150,"Village Pkwy + Davona Dr",,37.721650,-121.926580,,,,,,2
3923,1151,"Village Pkwy + Brighton Dr",,37.718273,-121.926838,,,,,,2
3924,1979,"Dublin Blvd + Clark Ave",,37.705562,-121.920858,,,,,,2
3925,1147,"Dublin Blvd + Civic Plz",,37.704317,-121.915752,,,,,,2
3926,1148,"Dublin Blvd + Dublin Ct",,37.703690,-121.912295,,,,,,2
3929,1980,"Dublin Blvd + Clark Ave and Village Pkwy",,37.705852,-121.921475,,,,,,0
3930,2091,"Village Pkwy + Lewis Ave",,37.707933,-121.925170,,,,,,0
3931,1154,"Village Pkwy + Amador Valley Blvd",,37.710612,-121.927117,,,,,,0
3932,1156,"Village Pkwy + Brighton Dr",,37.719012,-121.926580,,,,,,0
3933,1157,"Village Pkwy + Davona Dr",,37.721082,-121.926402,,,,,,0
3934,1158,"Village Pkwy + Shavano Way",,37.726028,-121.929183,,,,,,0
3935,1690,"Village Pkwy + Alcosta Blvd",,37.729065,-121.931905,,,,,,0
3936,1563,"Alcosta Blvd + Davona Blvd",,37.724435,-121.936793,,,,,,0
3937,1556,"Alcosta Blvd + San Ramon Valley Blvd",,37.723128,-121.942157,,,,,,0
3938,1686,"Tareyton Ave + Pine Valley Rd",,37.737807,-121.950263,,,,,,0
3939,1687,"Tareyton Ave + Pownal Ave",,37.740077,-121.951972,,,,,,0
3940,1688,"Tareyton Ave + Bridgeport Ave",,37.743310,-121.954217,,,,,,0
3941,1657,"Montevideo Dr + San Ramon Valley Blvd",,37.747348,-121.957475,,,,,,2
3942,1678,"San Ramon Valley Blvd + Morgan Dr",,37.751445,-121.960437,,,,,,2
3944,1672,"San Ramon Valley Blvd + Bollinger Crossing",,37.757985,-121.966555,,,,,,2
3945,1589,"Bollinger Canyon Rd + San Ramon Valley Blvd",,37.759432,-121.968682,,,,,,2
3946,1590,"Bollinger Canyon Rd + Talavera Dr",,37.759615,-121.970967,,,,,,2
3947,1591,"Bollinger Canyon Rd + Andora Ln",,37.759518,-121.977363,,,,,,2
3948,2098,"Bollinger Canyon Rd + Marsh Dr",,37.760342,-121.978755,,,,,,2
3949,1592,"Bollinger Canyon Rd + Aranda Dr",,37.762242,-121.981000,,,,,,2
3950,1593,"Bollinger Canyon Rd + Norris Canyon Rd",,37.763732,-121.982728,,,,,,2
3951,1594,"Bollinger Canyon Rd + Ascension Dr",,37.765210,-121.984337,,,,,,2
3952,1595,"Bollinger Canyon Rd + Marsh Dr",,37.766552,-121.986363,,,,,,2
3953,1596,"Bollinger Canyon Rd + Dos Rios Dr",,37.767688,-121.988490,,,,,,2
3954,1597,"Bollinger Canyon Rd + Fountainhead Dr",,37.769878,-121.993537,,,,,,2
3955,1625,"Crow Canyon Rd + Bollinger Canyon Rd",,37.772623,-121.995403,,,,,,2
3956,1626,"Crow Canyon Rd + Park Pl",,37.773300,-121.988808,,,,,,2
3957,1627,"Crow Canyon Rd + Old Crow Canyon Rd",,37.774317,-121.983007,,,,,,2
3958,1628,"Crow Canyon Rd + Twin Creeks Dr",,37.774968,-121.980423,,,,,,2
3959,1675,"San Ramon Valley Blvd + Crow Canyon Rd",,37.775310,-121.977820,,,,,,2
3960,1676,"San Ramon Valley Blvd + Regal Crow Canyon",,37.772178,-121.974225,,,,,,2
3961,1645,"Executive Pkwy + Bishop Dr",,37.767180,-121.968820,,,,,,0
3962,1646,"Executive Pkwy + Bishop Dr and Camino Ramon",,37.768968,-121.964548,,,,,,2
3965,1618,"Camino Ramon + Crow Canyon Rd",,37.778755,-121.968423,,,,,,2
3966,1619,"Camino Ramon + Crow Canyon Rd",,37.780612,-121.969695,,,,,,2
3967,1651,"Fostoria Way + Camino Ramon",,37.782057,-121.971165,,,,,,2
3968,1652,"Fostoria Way + Camino Ramon",,37.781338,-121.972913,,,,,,2
3969,1673,"San Ramon Valley Blvd + Fostoria Way",,37.780890,-121.978357,,,,,,2
3971,1128,"San Ramon Valley Blvd + Ridgeland Dr",,37.789965,-121.982470,,,,,,2
3972,1081,"Camino Ramon + Baldwin Dr",,37.794570,-121.983443,,,,,,2
3973,1082,"Camino Ramon + Saint Patricks Dr",,37.796375,-121.984675,,,,,,2
3974,1083,"Camino Ramon + El Capitan Dr",,37.800487,-121.987675,,,,,,2
3975,1084,"Camino Ramon + San Thomas Way",,37.804687,-121.989583,,,,,,2
3976,1085,"Camino Ramon + Sycamore Valley Rd",,37.810293,-121.990953,,,,,,2
3977,1129,"San Ramon Valley + Sycamore Square",,37.812687,-121.995543,,,,,,2
3978,1131,"San Ramon Valley Blvd + Sonora Ave",,37.817367,-121.996417,,,,,,2
3980,1998,"Railroad Ave + Linda Mesa Ave",,37.822568,-122.002270,,,,,,2
3981,1123,"Railroad Ave + Love Ln",,37.823765,-122.003263,,,,,,2
3982,961,"Danville Blvd + La Gonda Way",,37.825728,-122.004058,,,,,,2
3983,2100,"Danville Blvd + El Cerro Blvd",,37.828238,-122.007337,,,,,,2
3984,963,"Danville Blvd + Hartford Rd",,37.832228,-122.014112,,,,,,2
3985,964,"Danville Blvd + El Portal",,37.834918,-122.017172,,,,,,2
3986,966,"Danville Blvd + Hemme Ave",,37.841567,-122.025138,,,,,,2
3987,968,"Danville Blvd + South Ave",,37.845293,-122.028893,,,,,,2
3988,969,"Danville Blvd + Las Trampas Rd",,37.847615,-122.030920,,,,,,2
3989,971,"Danville Blvd + St Alphonsus Ct",,37.853793,-122.034853,,,,,,2
3990,972,"Danville Blvd + Ridgewood Rd",,37.856977,-122.036940,,,,,,2
3991,973,"Danville Blvd + Livorna Rd",,37.862043,-122.040020,,,,,,2
3992,1892,"S Main St + Rudgear Rd",,37.879260,-122.050053,,,,,,2
4000,1564,"Alcosta Blvd + Village Pkwy",,37.729498,-121.931627,,,,,,0
4001,1560,"Alcosta Blvd + Fircrest Ln",,37.731425,-121.927992,,,,,,0
4002,1647,"Fircrest Ln + Sunrise Villa San Ramon",,37.729045,-121.925785,,,,,,0
4003,1648,"Fircrest Ln + Craydon Cir",,37.728187,-121.924772,,,,,,0
4004,1682,"Tangerine St + Craydon Cir",,37.729295,-121.923203,,,,,,0
4005,1691,"Wisteria St + Tangerine St",,37.731763,-121.924117,,,,,,0
4006,1649,"Fircrest Ln + Dogwood Pl",,37.729323,-121.926103,,,,,,0
4019,1663,"Pine Valley Rd + Broadmoor Dr",,37.739322,-121.941918,,,,,,2
4020,1602,"Broadmoor Dr + California High",,37.747007,-121.947462,,,,,,2
4021,1603,"Broadmoor Dr + St Denis Dr",,37.748845,-121.948395,,,,,,2
4032,1407,"Orinda Way + Orinda Community Center",,37.882383,-122.187898,,,,,,2
4033,1408,"Orinda Way + Irwin Way",,37.884215,-122.190005,,,,,,2
4034,1409,"Orinda Way + Avenida De Orinda",,37.885380,-122.191793,,,,,,2
4035,1369,"Camino Pablo + Miner Rd",,37.888448,-122.194317,,,,,,2
4036,1376,"Miner Rd + Camino Don Miguel",,37.896995,-122.192070,,,,,,2
4037,1377,"Miner Rd + Camino Sobrante",,37.900782,-122.190898,,,,,,2
4038,1378,"Miner Rd + Lombardy Ln",,37.902193,-122.190083,,,,,,2
4039,1379,"Miner Rd + Valley View Rd",,37.903965,-122.183845,,,,,,2
4040,1380,"Miner Rd + Tiger Tail Ct",,37.905780,-122.182355,,,,,,2
4041,1381,"Miner Rd + Sycamore Rd",,37.906405,-122.179157,,,,,,2
4042,1373,"Honey Hill Rd + Miner Rd",,37.902848,-122.170792,,,,,,2
4044,1418,"Via Las Cruces + Las Vegas Rd",,37.899077,-122.172342,,,,,,2
4045,1416,"Saint Stephens Dr + De Soto Ct",,37.896618,-122.172043,,,,,,2
4046,1415,"Saint Stephens Dr + Via Floreado",,37.894563,-122.171945,,,,,,2
4047,1414,"Saint Stephens Dr + E Altarinda Dr",,37.892878,-122.171725,,,,,,2
4048,1410,"Orindawoods Dr + Ironbark Cir",,37.893033,-122.175520,,,,,,2
4049,1412,"Orindawoods Dr + Village Gate Rd",,37.885300,-122.182415,,,,,,2
4050,1368,"Altarinda Rd + Orinda Masonic Center",,37.882487,-122.184600,,,,,,2
4051,1413,"Santa Maria Way + Orinda Way",,37.881008,-122.186012,,,,,,2
4058,670,"Mason Cir + Bates Ave",,38.011027,-122.041172,,,,,,2
4059,671,"Mason Cir + Commercial Support Services",,38.009393,-122.040517,,,,,,2
4060,672,"Mason Cir + Bates Ave",,38.012372,-122.039323,,,,,,2
4069,497,"Bates Ave + Folsom Ct",,38.014182,-122.031635,,,,,,2
4073,779,"Port Chicago Hwy + Bates Ave",,38.014463,-122.024760,,,,,,2
4075,898,"North Concord Martinez BART",,38.002180,-122.024085,,,,,,2
4077,1231,"St Mary's Rd + Cattle Chute Rd",,37.853960,-122.103697,,,,,,2
4078,1232,"St Mary's Rd + Driftwood Dr",,37.857617,-122.101968,,,,,,2
4079,1233,"St Mary's Rd + Rohrer Dr",,37.859007,-122.101730,,,,,,2
4080,1234,"St Mary's Rd + Lafayette Community Center",,37.864768,-122.099962,,,,,,2
4081,1235,"St Mary's Rd + Glenside Dr",,37.871982,-122.098233,,,,,,2
4082,1236,"St Mary's Rd + Glenside Dr",,37.880922,-122.103280,,,,,,2
4083,1237,"St Mary's Rd + Hope Ln",,37.883457,-122.110035,,,,,,2
4084,1238,"St Mary's Rd + Avalon Ave",,37.885022,-122.115220,,,,,,2
4086,1214,"Olympic Blvd + Bridgefield Rd",,37.884312,-122.083372,,,,,,0
4087,1216,"Pleasant Hill Rd + Olympic Blvd",,37.886635,-122.092968,,,,,,0
4089,1167,"Camino Diablo + Stanley Blvd",,37.903885,-122.094180,,,,,,2
4090,1239,"Stanley Blvd + Acalanes High School",,37.902972,-122.096365,,,,,,2
4091,1190,"Mt Diablo Blvd + Mt Diablo Ct",,37.896797,-122.097935,,,,,,2
4092,1191,"Mt Diablo Blvd + Hampton Rd",,37.895092,-122.106042,,,,,,2
4093,1192,"Mt Diablo Blvd + Stuart St",,37.894210,-122.108465,,,,,,2
4094,1193,"Mt Diablo Blvd + Brown Ave",,37.893662,-122.109975,,,,,,2
4095,1195,"Mt Diablo Blvd + First St",,37.892402,-122.116810,,,,,,2
4097,1206,"Mt Diablo Blvd + Golden Gate Way",,37.892063,-122.117823,,,,,,2
4098,1213,"Mt Diablo Blvd + First St",,37.892338,-122.115837,,,,,,2
4099,1207,"Mt Diablo Blvd + Second St",,37.892695,-122.113233,,,,,,2
4100,1208,"Mt Diablo Blvd + Golden Gate Way",,37.893037,-122.111387,,,,,,2
4101,1209,"Mt Diablo Blvd + Willow Dr",,37.894245,-122.107870,,,,,,2
4102,1210,"Mt Diablo Blvd + Hampton Dr",,37.894805,-122.106300,,,,,,2
4103,1211,"Mt Diablo Blvd + Carol Ln",,37.895902,-122.103200,,,,,,2
4104,1212,"Mt Diablo Blvd + Mt Diablo Ct",,37.896570,-122.097935,,,,,,2
4105,1164,"Acalanes Ave + Nogales St",,37.901283,-122.094320,,,,,,2
4127,1175,"Happy Valley Rd + Rose Ln",,37.900988,-122.133380,,,,,,2
4128,1176,"Happy Valley Rd + Franklin Ln",,37.902257,-122.136480,,,,,,2
4129,1177,"Happy Valley Rd + Panorama Dr",,37.905395,-122.142460,,,,,,2
4131,1171,"El Nido Ranch Rd + Lizann Dr",,37.893883,-122.162110,,,,,,2
4132,1180,"Hidden Valley Rd + Blackthorn Dr",,37.892390,-122.163640,,,,,,2
4133,1181,"Hidden Valley Rd + Crest Rd",,37.890507,-122.158117,,,,,,2
4134,1166,"Acalanes Rd + Hidden Valley Rd",,37.886803,-122.156010,,,,,,2
4135,1165,"Acalanes Rd + Valente Dr",,37.888193,-122.154620,,,,,,2
4136,1197,"Mt Diablo Blvd + Acalanes Rd",,37.889933,-122.153407,,,,,,2
4137,1198,"Mt Diablo Blvd + Paulson Ct",,37.889655,-122.149910,,,,,,2
4138,1199,"Mt Diablo Blvd + Lafayette Reservoir Recreational Area",,37.887990,-122.139440,,,,,,2
4139,1200,"Mt Diablo Blvd + Village Center",,37.888282,-122.134017,,,,,,2
4140,1201,"Mt Diablo Blvd + Gallagher",,37.889775,-122.130618,,,,,,2
4141,1202,"Mt Diablo Blvd + Mountain View Dr",,37.890848,-122.127082,,,,,,2
4144,1169,"El Nido Ranch Rd + Upper Happy Valley Rd",,37.893128,-122.152672,,,,,,2
4145,1240,"Upper Happy Valley Rd + Los Arabis Dr",,37.895640,-122.151083,,,,,,2
4146,1242,"Upper Happy Valley Rd + S Peardale Dr",,37.899050,-122.150825,,,,,,2
4147,1241,"Upper Happy Valley Rd + Rahara Dr",,37.901052,-122.150845,,,,,,2
4148,1243,"Upper Happy Valley Rd + Canyon Rd",,37.904398,-122.153010,,,,,,2
4149,1244,"Upper Happy Valley Rd + Happy Valley Rd",,37.906348,-122.152970,,,,,,2
4150,1178,"Happy Valley Rd + Panorama Dr",,37.905360,-122.142678,,,,,,2
4151,1172,"Happy Valley Rd + Palo Alto Dr",,37.902518,-122.137075,,,,,,2
4152,1173,"Happy Valley Rd + Rose Ln",,37.900583,-122.132665,,,,,,2
4157,1056,"Stone Valley Rd + Alamo Ranch Rd",,37.851867,-122.025475,,,,,,2
4159,1058,"Stone Valley Rd + Stonecreek Pl",,37.847075,-121.996000,,,,,,2
4160,1132,"Stone Valley Rd + Monte Vista High",,37.844627,-121.983762,,,,,,2
4161,1111,"Green Valley Rd + Compo Via",,37.842230,-121.978813,,,,,,2
4162,1112,"Green Valley Rd + Donna Ln",,37.839012,-121.978517,,,,,,2
4163,1099,"Diablo Rd + Green Valley Rd",,37.834955,-121.978715,,,,,,2
4165,1101,"Diablo Rd + Arroyo Dr",,37.825697,-121.987457,,,,,,2
4166,1103,"Diablo Rd + El Pintado",,37.823045,-121.997053,,,,,,2
4168,1134,"Sycamore Valley Rd + Greenbrook Dr",,37.812400,-121.975437,,,,,,2
4169,1086,"Camino Tassajara + Sycamore Valley Rd",,37.816052,-121.967708,,,,,,2
4170,1087,"Camino Tassajara + Messian Pl",,37.815047,-121.963417,,,,,,2
4171,1088,"Camino Tassajara + Shady Creek Dr",,37.811045,-121.955985,,,,,,2
4172,1089,"Camino Tassajara + Sherburne Hills Dr",,37.807327,-121.949468,,,,,,2
4173,1090,"Camino Tassajara + Creekside Ave",,37.804958,-121.944860,,,,,,2
4174,1098,"Camino Tassajara + Wood Ranch Dr",,37.800853,-121.932720,,,,,,2
4175,1091,"Camino Tassajara + Tassajara Village",,37.798833,-121.919805,,,,,,2
4176,1138,"Tassajara Ranch Dr + Center Way",,37.797337,-121.917302,,,,,,2
4177,1139,"Tassajara Ranch Dr + Blackstone Dr",,37.795385,-121.918653,,,,,,2
4178,1140,"Tassajara Ranch Dr + Blackstone Dr",,37.793160,-121.920740,,,,,,2
4180,1629,"Crow Canyon Rd + Dougherty Rd",,37.788535,-121.927355,,,,,,2
4181,1631,"Crow Canyon Rd + Canyon Crest Dr",,37.785912,-121.943408,,,,,,2
4182,1632,"Crow Canyon Rd + Canyon Crest Dr",,37.788375,-121.947085,,,,,,2
4183,1578,"Annabel Ln + End",,37.773467,-121.971363,,,,,,2
4197,1641,"Crow Canyon Rd + Canyon Crest Dr",,37.787875,-121.945793,,,,,,2
4198,1642,"Crow Canyon Rd + Canyon Crest Dr",,37.785013,-121.943012,,,,,,2
4199,1640,"Crow Canyon Rd + Shoreline Dr",,37.783178,-121.937925,,,,,,2
4200,1639,"Crow Canyon Rd + Dougherty Rd",,37.788980,-121.925945,,,,,,2
4201,1141,"Tassajara Ranch Dr + Blackstone Dr",,37.793155,-121.921157,,,,,,2
4202,1142,"Tassajara Ranch Dr + Mountain Ridge Dr",,37.795127,-121.918673,,,,,,2
4203,1143,"Tassajara Ranch Dr + Zenith Ridge Dr",,37.797078,-121.917402,,,,,,2
4204,1092,"Camino Tassajara + Tassajara Ranch Dr",,37.798918,-121.917818,,,,,,2
4228,1654,"Montevideo Dr + Broadmoor Dr",,37.752763,-121.949807,,,,,,2
4229,1655,"Montevideo Dr +  Canal",,37.753717,-121.947183,,,,,,2
4230,1570,"Alcosta Blvd + Montevideo Dr",,37.753983,-121.938680,,,,,,2
4231,1572,"Alcosta Blvd + Canyon Hills Dr",,37.759845,-121.944045,,,,,,2
4232,1573,"Alcosta Blvd + Canyon Woods Dr",,37.762797,-121.947522,,,,,,2
4233,1575,"Alcosta Blvd + Overlook Dr",,37.768428,-121.954693,,,,,,2
4234,1576,"Alcosta Blvd + Woodland Dr",,37.770923,-121.956680,,,,,,2
4244,1436,"Chilpancingo Pkwy + Contra Costa Blvd",,37.975263,-122.066107,,,,,,2
4245,1449,"Contra Costa Blvd + Cottonwood Dr",,37.973385,-122.064198,,,,,,2
4246,1464,"Crescent Plz + Cleaveland Rd",,37.945212,-122.063822,,,,,,2
4268,649,"Kirker Pass Rd + Olive Dr",,37.955105,-121.953642,,,,,,2
4269,650,"Kirker Pass Rd + Clayton Rd",,37.953373,-121.956005,,,,,,2
4288,1462,"Crescent Plz + Crescent Dr",,37.945307,-122.062113,,,,,,2
4289,603,"Contra Costa Blvd + Firestone",,37.970003,-122.063127,,,,,,2
4290,1446,"Contra Costa Blvd + Golf Club Rd",,37.972355,-122.063663,,,,,,2
4314,1836,"N Main St + Third Ave and San Luis Rd",,37.918175,-122.065570,,,,,,2
4318,1255,"Alhambra Ave + Walnut Ave",,37.992402,-122.130777,,,,,,2
4319,1257,"Alhambra Ave + G St",,38.000213,-122.131830,,,,,,2
4320,1258,"Alhambra Ave + C St",,38.005045,-122.130997,,,,,,2
4321,1259,"Alhambra Ave + Bertola St",,38.007413,-122.130578,,,,,,2
4322,1260,"Alhambra Ave + Allen Dr",,38.009350,-122.131373,,,,,,2
4323,1261,"Alhambra Ave + Jones St",,38.012753,-122.134612,,,,,,2
4324,1262,"Alhambra Ave + Mellus St",,38.014435,-122.136222,,,,,,2
4325,1263,"Alhambra Ave + Main St",,38.016372,-122.138048,,,,,,2
4329,1290,"Berrellesa St + Jones St",,38.011885,-122.134950,,,,,,2
4330,1291,"Berrellesa St + Robinson St",,38.010040,-122.133202,,,,,,2
4331,1292,"Berrellesa St + Soto St",,38.008080,-122.131373,,,,,,2
4332,1264,"Alhambra Ave + Contra Costa Regional Medical Center",,38.005765,-122.131075,,,,,,2
4337,472,"Airport Plaza",,37.979308,-122.054047,,,,,,2
4340,1700,"San Ramon Transit Center",,37.770467,-121.960417,,,,,,2
4345,1693,"Bishop Ranch 1",,37.760938,-121.956760,,,,,,0
4346,1617,"Camino Ramon + Norris Canyon Rd",,37.775473,-121.965702,,,,,,2
4354,437,"Fairview Dr + Potomac Ct",,38.001410,-121.845102,,,,,,2
4355,433,"Somersville Rd + Buchanan Rd",,37.998402,-121.843888,,,,,,2
4356,430,"Buchanan Rd + Mcfaul Dr",,37.998042,-121.875360,,,,,,2
4357,431,"Buchanan Rd + Suzanne Dr",,37.998042,-121.880785,,,,,,2
4358,441,"Buchanan Rd + Harbor Dr",,37.998065,-121.887778,,,,,,2
4359,442,"Kirker Pass Rd + Castlewood Dr",,37.995852,-121.897553,,,,,,2
4360,880,"Ygnacio Valley Rd + Michigan Blvd",,37.947632,-121.963615,,,,,,2
4361,1780,"Mitchell Dr + N Wiget Ln",,37.928995,-122.025535,,,,,,2
4362,1937,"Ygnacio Valley Rd + Kinross Dr",,37.913037,-122.044152,,,,,,2
4373,881,"Ygnacio Valley Rd + Michigan Blvd",,37.947635,-121.963138,,,,,,2
4374,1959,"Kirker Pass Rd + Allegro Ave",,37.953727,-121.954932,,,,,,2
4376,443,"Kirker Pass Rd + Castlewood Dr",,37.995415,-121.897097,,,,,,2
4377,440,"Buchanan Rd + Campbell Dr",,37.997977,-121.886527,,,,,,2
4378,439,"Buchanan Rd + Inverness Dr",,37.997977,-121.881877,,,,,,2
4379,438,"Buchanan Rd + Loveridge Rd",,37.997965,-121.872937,,,,,,2
4380,432,"Buchanan Rd + Somersville Rd",,37.997938,-121.846273,,,,,,2
4381,436,"Fairview Dr + Potomac Ct",,38.001632,-121.844763,,,,,,2
4384,1692,"Chevron San Ramon",,37.759638,-121.959482,,,,,,0
4385,1694,"Bishop Ranch 3",,37.767493,-121.958092,,,,,,0
4386,1615,"Bishop Ranch 6",,37.772100,-121.964410,,,,,,0
4387,1659,"Norris Canyon Rd + Iron Horse Trail",,37.775163,-121.963317,,,,,,2
4388,1660,"Norris Canyon Rd + Camino Ramon",,37.774372,-121.965323,,,,,,2
4389,1553,"Bishop Ranch 8",,37.768118,-121.968502,,,,,,2
4417,1621,"Crow Canyon Pl + Crow Canyon Rd",,37.779412,-121.972277,,,,,,0
4448,1269,"Alhambra Ave + Franklin Canyon Rd",,37.989077,-122.129287,,,,,,2
4449,2099,"Alhambra Ave + Alhambra Valley Rd",,37.983955,-122.126228,,,,,,2
4450,1271,"Alhambra Ave + Forest Way",,37.982012,-122.115420,,,,,,2
4451,1272,"Alhambra Ave + Lindsey Dr",,37.975582,-122.109300,,,,,,2
4452,1273,"Alhambra Ave + Wildcroft Dr",,37.970552,-122.105207,,,,,,2
4453,1274,"Alhambra Ave + Glenview Dr",,37.969332,-122.101552,,,,,,2
4454,1275,"Alhambra Ave + Benham Dr",,37.965815,-122.098352,,,,,,2
4455,1277,"Alhambra Ave + Starbucks",,37.959322,-122.093763,,,,,,2
4456,1278,"Alhambra Ave + Devon Ave",,37.955527,-122.090247,,,,,,2
4458,1481,"Gregory Ln + Pleasant Hill Rd",,37.947830,-122.081683,,,,,,2
4459,1482,"Gregory Ln + Brandon Rd",,37.947862,-122.077213,,,,,,2
4460,1483,"Gregory Ln + Rolling Green  Cir",,37.947862,-122.075087,,,,,,2
4461,1484,"Gregory Ln + Kahrs Ave",,37.947902,-122.072822,,,,,,2
4462,1485,"Gregory Ln + Price Ln",,37.947953,-122.070657,,,,,,2
4463,1486,"Gregory Ln + Moiso Ln",,37.947917,-122.066842,,,,,,2
4464,1441,"Cleaveland Rd + Trelany Rd",,37.946880,-122.064298,,,,,,2
4465,1465,"Crescent Plz + Crescent Dr",,37.945192,-122.061477,,,,,,2
4466,1473,"Monument Blvd + Contra Costa Blvd",,37.945252,-122.059530,,,,,,2
4468,1434,"Buskirk Ave + Mayhew Way",,37.936958,-122.059868,,,,,,2
4471,1429,"Buskirk Ave + Mayhew Way",,37.936513,-122.059748,,,,,,2
4473,1431,"Buskirk Ave + Lamkin Ln",,37.944612,-122.055517,,,,,,2
4474,1478,"Gregory Ln + Kahrs Ave",,37.948013,-122.073875,,,,,,2
4475,1479,"Gregory Ln + Helen Rd and Brandon Rd",,37.947997,-122.076200,,,,,,2
4476,1480,"Gregory Ln + Brandon Rd",,37.947973,-122.078325,,,,,,2
4478,1525,"Pleasant Hill Rd + Mercury Way",,37.951278,-122.083868,,,,,,2
4481,1528,"Pleasant Hill Rd + Devon Ave",,37.956127,-122.090703,,,,,,2
4482,1529,"Pleasant Hill Rd + Paso Nogal",,37.957275,-122.091875,,,,,,2
4483,1421,"Alhambra Ave + Rockridge Dr",,37.959997,-122.094080,,,,,,2
4484,1422,"Alhambra Ave + Shetland Dr",,37.964455,-122.097280,,,,,,2
4485,1424,"Alhambra Ave + Heritage Oaks Dr",,37.967862,-122.099643,,,,,,2
4486,1423,"Alhambra Ave + Elderwood Dr",,37.969837,-122.102247,,,,,,2
4487,1250,"Alhambra Ave + Wildcroft Dr",,37.971103,-122.105683,,,,,,2
4488,1251,"Alhambra Ave + Macalvey Dr",,37.975148,-122.108663,,,,,,2
4489,1252,"Alhambra Ave + John Muir Rd",,37.982985,-122.116552,,,,,,2
4490,1253,"Alhambra Ave + Phylis Ter",,37.983458,-122.124400,,,,,,2
4491,1254,"Alhambra Ave + Alhambra Way",,37.986950,-122.128135,,,,,,2
4493,1827,"N Main St + San Luis Rd",,37.917575,-122.065610,,,,,,2
4494,1829,"N Main St + Auto Center Dr",,37.922378,-122.063920,,,,,,2
4498,1833,"N Main St + Lesnick Ln",,37.923782,-122.063643,,,,,,2
4499,1834,"N Main St + Second Ave",,37.921552,-122.064418,,,,,,2
4507,688,"Michigan Blvd + Ygnacio Valley Rd",,37.947337,-121.963198,,,,,,2
4510,1021,"Pacheco Blvd + Contra Costa Health Services Discovery House",,38.003690,-122.085080,,,,,,2
4511,1022,"Pacheco Blvd + Arthur Rd",,38.006878,-122.091280,,,,,,2
4512,1023,"Pacheco Blvd + Camino Del Sol",,38.008367,-122.095412,,,,,,2
4536,1696,"San Ramon Transit Center",,37.770475,-121.960257,,,,,,2
4543,1100,"Diablo Rd + El Cerro Blvd",,37.829455,-121.987457,,,,,,2
4547,1245,"Upper Happy Valley Rd + Oleander Dr",,37.903035,-122.153128,,,,,,2
4549,1417,"Via Las Cruces + Honey Hill Rd",,37.899793,-122.170275,,,,,,2
4551,1312,"Morello Ave + Arnold Dr",,37.994655,-122.100478,,,,,,2
4554,1289,"Berrellesa St + Mellus St",,38.013882,-122.136897,,,,,,2
4555,1813,"N California Blvd + California Plaza",,37.908458,-122.065908,,,,,,2
4558,1475,"Gregory Ln + Cleaveland Rd",,37.948008,-122.064657,,,,,,2
4560,863,"Willow Pass Rd + Esperanza Dr",,37.980752,-122.021185,,,,,,2
4563,622,"Detroit Ave + Lynn Ave",,37.965623,-122.038450,,,,,,2
4564,744,"Oak Grove Rd + Monument Blvd",,37.956242,-122.038708,,,,,,2
4568,445,"Clayton Rd + Lydia Ln",,37.946375,-121.947085,,,,,,2
4569,567,"Clayton Rd + Adelaide St",,37.971810,-122.041013,,,,,,2
4594,764,"Parkside Dr + Willow Pass Rd",,37.980628,-122.025058,,,,,,2
4663,2004,"Marchbanks Dr + Ygnacio Valley Rd",,37.911872,-122.046775,,,,,,0
4667,1057,"Stone Valley Rd + Miranda Ave",,37.852192,-122.016018,,,,,,2
4669,483,"Arnold Industrial Way + Laura Alice Way",,38.003118,-122.047390,,,,,,2
4672,2029,"Bollinger Canyon Rd + Dougherty Rd",,37.749720,-121.913448,,,,,,2
4673,2030,"Bollinger Canyon Rd + E Branch Pkwy",,37.753865,-121.908620,,,,,,2
4674,2031,"Bollinger Canyon Rd + Harcourt Way",,37.759737,-121.904905,,,,,,2
4675,2002,"Bollinger Canyon Rd + Windemere Pkwy",,37.763803,-121.903872,,,,,,2
4676,2032,"Bollinger Canyon Rd + Albion Rd",,37.767140,-121.905500,,,,,,2
4677,2033,"Bollinger Canyon Rd + Bluehart Way",,37.770240,-121.909355,,,,,,2
4678,2034,"Bollinger Canyon Rd + Monarch Rd",,37.771733,-121.912215,,,,,,2
4679,2035,"Bollinger Canyon Rd + Briar Oaks Dr",,37.773868,-121.918713,,,,,,2
4680,2036,"Bollinger Canyon Rd + N Wedgewood Rd",,37.773857,-121.922368,,,,,,2
4681,2037,"Bollinger Canyon Rd + Gale Ridge Rd",,37.772393,-121.932342,,,,,,2
4682,2038,"Bollinger Canyon Rd + Chanterella Dr",,37.772178,-121.940170,,,,,,2
4683,2039,"Bollinger Canyon Rd + Canyon Lakes Dr",,37.771598,-121.945653,,,,,,2
4684,2003,"Bollinger Canyon Rd + Alcosta Blvd",,37.765590,-121.952488,,,,,,2
4690,2000,"Bollinger Canyon Rd + Market Pl",,37.764637,-121.953403,,,,,,2
4691,2040,"Bollinger Canyon Rd + Canyon View Cir",,37.771468,-121.945098,,,,,,2
4692,2041,"Bollinger Canyon Rd + Chanterella Dr",,37.771802,-121.938680,,,,,,2
4693,2042,"Bollinger Canyon Rd + Gale Ridge Rd",,37.772298,-121.930792,,,,,,2
4694,2043,"Bollinger Canyon Rd + S Wedgewood Rd",,37.773403,-121.920700,,,,,,2
4695,2044,"Bollinger Canyon Rd + Stoneleaf Rd",,37.773088,-121.917520,,,,,,2
4696,2045,"Bollinger Canyon Rd + S Monarch Rd",,37.770685,-121.911402,,,,,,2
4697,2046,"Bollinger Canyon Rd + Main Branch Rd",,37.769218,-121.908698,,,,,,2
4698,2047,"Bollinger Canyon Rd + Albion Rd",,37.765957,-121.905023,,,,,,2
4699,2001,"Bollinger Canyon Rd + Windemere Pkwy",,37.762642,-121.904348,,,,,,2
4700,2048,"Bollinger Canyon Rd + Harcourt Way",,37.758823,-121.905858,,,,,,2
4701,2049,"Bollinger Canyon Rd + Watermill Rd",,37.754413,-121.908680,,,,,,2
4702,2050,"Dougherty Rd So + Dougherty Rd  No",,37.749163,-121.914442,,,,,,2
4705,2024,"Buchanan Rd + Ventura Dr",,37.997922,-121.867313,,,,,,2
4706,2025,"Buchanan Rd + Ventura Dr",,37.998045,-121.868982,,,,,,2
4718,2023,"Olivera Rd + Terraza Del Sol and Peralta Rd",,37.998487,-122.046118,,,,,,2
4719,749,"Olivera Rd + Hillsborough Dr",,37.996785,-122.036800,,,,,,2
4720,750,"Olivera Rd + Northwood Dr",,37.997905,-122.042343,,,,,,2
4780,1160,"Dublin Pleasanton BART",,37.702902,-121.899440,,,,,,2
4781,2056,"Dougherty Rd + Iron Horse Trail Apts",,37.708752,-121.910170,,,,,,2
4785,1406,"Orinda Way + Orinda Library",,37.881370,-122.186587,,,,,,2
4787,2057,"Dougherty Rd + Park Sierra",,37.711772,-121.910388,,,,,,2
4788,2028,"Dougherty Rd + Sierra Ln",,37.705973,-121.910090,,,,,,2
4789,2067,"Berrellesa St + Marina Vista Ave and Escobar St",,38.016708,-122.139658,,,,,,2
4802,2068,"Clayton Rd + Sutter St",,37.973173,-122.037853,,,,,,2
4806,2069,"Camino Ramon + Rose Garden",,37.809412,-121.991073,,,,,,2
4812,2080,"Dougherty Rd + Monarch Rd",,37.778382,-121.922727,,,,,,2
4813,2077,"Dougherty Rd + Red Willow Rd",,37.787422,-121.925508,,,,,,2
4814,2076,"Dougherty Rd + Red Willow Rd",,37.786500,-121.925328,,,,,,2
4831,2084,"Trinity Ave + St Pauls Episcopal Church",,37.901410,-122.068352,,,,,,2
4832,2085,"Trinity Ave + St Pauls Episcopal Church",,37.901342,-122.068073,,,,,,2
4838,2082,"Bollinger Canyon Rd + Bishop Ranch 1",,37.762607,-121.956622,,,,,,2
4846,1786,"Montego + Satellite Senior Homes",,37.910732,-122.041588,,,,,,2
4847,2087,"John Muir Medical Center Walnut Creek",,37.912265,-122.040377,,,,,,2
4851,1788,"Montego + Tampico",,37.910320,-122.043060,,,,,,2
4853,434,"Delta Fair Blvd + Somersville Towne Center",,38.003773,-121.842042,,,,,,2
4862,960,"Danville Blvd + Railroad Ave",,37.825172,-122.003640,,,,,,2
4868,2093,"Alberta Way + Skyler Ct",,37.949038,-121.967588,,,,,,0
4871,2092,"Dublin Blvd + Scarlett Ct",,37.705680,-121.907090,,,,,,2
4878,2086,"Coggins Dr + Buskirk Ave",,37.933358,-122.058715,,,,,,2
4879,967,"Danville Blvd + La Serena Ave",,37.844185,-122.027702,,,,,,2
4891,2015,"Geary Rd + Buena Vista Ave",,37.926273,-122.072822,,,,,,0
4901,2101,"Mt Diablo Blvd + Lafayette Cemetery",,37.896728,-122.100220,,,,,,2
4908,2022,"Pike Ln + Arnold Industrial Way",,38.009500,-122.030702,,,,,,2
4911,2109,"Windemere Pkwy + Harcourt Way",,37.762725,-121.895188,,,,,,2
4912,2110,"Windemere Pkwy + Bethany Rd",,37.760477,-121.887420,,,,,,2
4913,2111,"Windemere Pkwy + Bethany Rd",,37.757433,-121.887043,,,,,,2
4914,2112,"E Branch Pkwy + Windemere Pkwy",,37.749212,-121.890420,,,,,,2
4915,2113,"E Branch Pkwy + Sherwood Way",,37.751433,-121.897970,,,,,,2
4916,2114,"E Branch Pkwy + Windemere Ranch School",,37.753415,-121.905302,,,,,,2
4917,2103,"E Branch Pkwy + Windemere Ranch School",,37.753463,-121.905003,,,,,,2
4918,2104,"E Branch Pkwy + Sherwood Way",,37.751297,-121.898050,,,,,,2
4919,2105,"Windemere Pkwy + E Branch Pkwy",,37.749633,-121.889605,,,,,,2
4920,2106,"Windemere Pkwy + Longleaf Cir",,37.758088,-121.886268,,,,,,2
4921,2107,"Windemere Pkwy + Albion Rd",,37.761192,-121.888275,,,,,,2
4922,2108,"Windemere Pkwy + Harcourt Way",,37.762777,-121.894115,,,,,,2
4924,2010,"Diamond Blvd + Willow Way",,37.970988,-122.055635,,,,,,2
4925,2021,"Crow Canyon Pl + Fostoria Way",,37.779618,-121.972893,,,,,,0
4930,2009,"Diamond Blvd + The Veranda",,37.973268,-122.057463,,,,,,2
4931,2011,"Diamond Blvd + Hilton Concord",,37.970567,-122.054960,,,,,,2
4932,2012,"Diamond Blvd + Golden Corral",,37.973850,-122.057702,,,,,,2
4935,2019,"Ygnacio Valley Rd + N Via Monte",,37.925875,-122.018880,,,,,,0
4937,2020,"Ygnacio Valley Rd + Via Monte",,37.925525,-122.018958,,,,,,0
4975,1012,"Pacheco Blvd + Morello Ave",,38.010272,-122.100915,,,,,,2
4993,2141,"Ygnacio Valley Rd + Diablo Creek Dentistry",,37.921290,-122.032787,,,,,,2
4994,2143,"Ygnacio Valley Rd + Walnut Blvd",,37.908013,-122.055477,,,,,,2
4998,1351,"Moraga Rd + Ascot Dr",,37.854910,-122.125015,,,,,,2
5000,2142,"Tampico + Ygnacio Valley Rd",,37.911133,-122.045722,,,,,,0
5002,2124,"Geary Rd + Lexington Pl",,37.926325,-122.071053,,,,,,0
5003,2119,"N Main St + Parkside Dr",,37.912402,-122.065332,,,,,,2
5006,2116,"Monument Blvd + Detroit Ave",,37.959925,-122.034098,,,,,,2
5008,1476,"Gregory Ln + Moiso Ln",,37.948068,-122.066922,,,,,,2
5009,2115,"Monument Blvd + Walters Way",,37.963358,-122.031773,,,,,,2
5010,2117,"Monument Blvd + Detroit Ave",,37.959577,-122.034218,,,,,,2
5011,2118,"Monument Blvd + Monument Ct and Systron Dr",,37.963088,-122.031615,,,,,,2
5013,2127,"Pacheco Blvd + Blum Rd",,37.994540,-122.074432,,,,,,2
5014,2125,"Pacheco Blvd + Little Valley Rd",,38.002903,-122.082458,,,,,,2
5015,2126,"Pacheco Blvd + Hwy 4 West Entrance",,37.993558,-122.074173,,,,,,2
5017,2133,"Dublin Blvd + Dougherty Rd",,37.704463,-121.910865,,,,,,0
5018,2131,"Buchanan Rd + Meadows Ave",,37.997913,-121.863002,,,,,,2
5019,2132,"Buchanan Rd + Meadows Ave",,37.998073,-121.864552,,,,,,2
5020,2140,"Dublin Pleasanton BART",,37.703045,-121.899818,,,,,,2
5030,1967,"Cleaveland Rd + W Hookston Rd",,37.940742,-122.063920,,,,,,2
5033,894,"Concord BART",,37.974300,-122.029210,,,,,,2
5034,895,"Concord BART",,37.974560,-122.029210,,,,,,2
5038,2144,"Moraga Rd + Rheem Blvd",,37.861077,-122.125075,,,,,,2
5039,2146,"Camino Tassajara + Jasmine Way",,37.799588,-121.903037,,,,,,2
5040,2147,"Camino Tassajara + Lawrence Rd",,37.799605,-121.898168,,,,,,2
5041,2148,"Camino Tassajara + Monterosso St",,37.799533,-121.892248,,,,,,2
5042,2149,"Camino Tassajara + Creekview Pl",,37.798770,-121.888037,,,,,,2
5043,2145,"Camino Tassajara + Charbray St",,37.799247,-121.881420,,,,,,2
5044,2152,"Lusitano St + Charbray St",,37.795310,-121.882493,,,,,,2
5045,2153,"Camino Tassajara + Blackhawk Dr",,37.799482,-121.882692,,,,,,2
5046,2154,"Camino Tassajara + Knowview Dr",,37.799220,-121.888970,,,,,,2
5047,2155,"Camino Tassajara + Shadow Creek Dr",,37.799812,-121.893460,,,,,,2
5048,2156,"Camino Tassajara + Oak Gate Dr",,37.799860,-121.899440,,,,,,2
5058,2138,"Pleasant Hill BART",,37.928720,-122.055218,,,,,,2
5061,2135,"Pleasant Hill BART",,37.928255,-122.055835,,,,,,2
5062,1073,"Pleasant Hill BART",,37.928462,-122.055715,,,,,,2
5063,2137,"Pleasant Hill BART",,37.928582,-122.055417,,,,,,2
5064,1072,"Pleasant Hill BART",,37.928622,-122.055477,,,,,,2
5065,2136,"Pleasant Hill BART",,37.928375,-122.055617,,,,,,2
5066,2158,"Unloading Dublin Pleasanton BART",,37.701623,-121.898030,,,,,,2
5068,1420,"Ellinwood Way + Contra Costa Employment Human Services",,37.959333,-122.053788,,,,,,2
5070,2159,"Arnold Industrial Way + Lowes Home Improvement",,38.004272,-122.041987,,,,,,2
5072,2083,"Montego + Ygnacio Valley Rd",,37.908590,-122.049557,,,,,,2
5075,2170,"Diablo Valley College",,37.970583,-122.068987,,,,,,2
5079,2166,"Diablo Valley College",,37.970702,-122.069107,,,,,,2
5080,2172,"Diablo Valley College",,37.970908,-122.068987,,,,,,2
5082,2173,"Diablo Valley College",,37.971055,-122.069027,,,,,,2
5087,2175,"Walnut Blvd + Scots Ln",,37.892947,-122.035847,,,,,,2
5090,2169,"Diablo Valley College",,37.970403,-122.068987,,,,,,2
5092,2168,"Diablo Valley College",,37.970440,-122.069187,,,,,,2
5093,2171,"Diablo Valley College",,37.970742,-122.068967,,,,,,2
5094,2176,"Monument Blvd + Studio 6 Concord",,37.950898,-122.046635,,,,,,2
5095,1145,"Dublin Blvd + Sierra Ct",,37.704873,-121.916905,,,,,,0
5097,2177,"Olympic Blvd + Panoramic Way",,37.885193,-122.077073,,,,,,0
5098,2179,"Olympic Blvd + Crawford Ct",,37.887757,-122.071768,,,,,,0
5099,1215,"Olympic Blvd + Pleasant Hill Rd",,37.886060,-122.092273,,,,,,0
5100,1002,"Olympic Blvd + Bridgefield Rd",,37.884370,-122.083630,,,,,,0
5101,1220,"Pleasant Hill Rd + Condit Rd",,37.891928,-122.094320,,,,,,0
5103,2180,"Olympic Blvd + Newell Ave",,37.888130,-122.071312,,,,,,0
5104,2178,"Olympic Blvd + Boulevard Way",,37.884745,-122.078365,,,,,,0
5109,2181,"John Muir Medical Center Walnut Creek",,37.912608,-122.041728,,,,,,2
5114,2184,"San Ramon Valley Blvd + Valley Vista Senior Housing",,37.734037,-121.949112,,,,,,0
5115,2162,"Dougherty Rd + Old Ranch Rd",,37.739893,-121.913745,,,,,,2
5116,2161,"Dougherty Rd + Old Ranch Rd",,37.739957,-121.914043,,,,,,2
5117,2185,"Tahiti Dr + Bahama Ct and Barbados Dr",,37.782232,-121.957615,,,,,,2
5119,2187,"Landana Dr + Mulberry Dr",,37.978722,-121.994192,,,,,,2
5120,2094,"Pleasanton Ace Train Station",,37.659113,-121.882373,,,,,,2
5122,2189,"Dougherty Rd + Mariposa Cir",,37.714712,-121.910368,,,,,,2
5123,2188,"Oakland Blvd + Trinity Ave",,37.901180,-122.069285,,,,,,2
5124,872,"Willow Pass Rd + East Olivera Rd",,37.983609,-122.015209,,,,,,2
5125,873,"Willow Pass Rd + N Sixth St",,37.981999,-122.018649,,,,,,2
5126,2191,"N Civic Dr + Brio Dr",,37.908897,-122.058457,,,,,,2
5128,1509,"Oak Rd + I 680 NB On Ramp",,37.931665,-122.058993,,,,,,2
5129,1635,"Crow Canyon Rd + Crow Canyon Pl",,37.779108,-121.970728,,,,,,2
5130,1842,"N Wiget Ln + Mitchell Dr",,37.927882,-122.026172,,,,,,2
5131,1636,"Crow Canyon Rd + Crow Canyon Pl",,37.778577,-121.970967,,,,,,2
5132,1616,"Camino Ramon + Bishop Ranch 7",,37.771455,-121.962760,,,,,,2
5134,2192,"Miner Rd + Gardiner Ct",,37.903526,-122.173289,,,,,,2
5143,2196,"Shadelands Dr + Lennon Ln",,37.925662,-122.027502,,,,,,2
5144,2194,"Newell Ave + S Broadway",,37.893590,-122.054443,,,,,,0
5145,2195,"N Via Monte + Ygnacio Valley Rd and Shadelands Dr",,37.927167,-122.019257,,,,,,2
5146,2197,"Oak Grove Rd + Peach Willow Ln",,37.932610,-122.019317,,,,,,2
5147,2198,"Treat Blvd + Oak Grove Plaza Driveway",,37.937888,-122.026827,,,,,,2
5151,2209,"Oak Grove Rd + Mitchell Dr",,37.932535,-122.019437,,,,,,2
5152,2210,"Buskirk Ave + Generations Church Of Pleasant Hill",,37.939307,-122.059212,,,,,,2
5154,1941,"Walnut Creek BART",,37.906007,-122.067040,,,,,,0
5156,1674,"San Ramon Valley Blvd + Hooper Dr",,37.784938,-121.980145,,,,,,2
5158,2214,"Estudillo St + Victory Ct",,38.001401,-122.128610,,,,,,2
5159,2215,"Vista Way + Pine St",,37.999490,-122.122888,,,,,,2
5160,2216,"Pine St + Sentinel Dr",,37.997250,-122.122565,,,,,,2
5161,2217,"Arnold Dr + Morello Ave",,37.993992,-122.102783,,,,,,0
5162,2218,"Arnold Dr + Walmart",,37.996047,-122.109857,,,,,,0
5163,2219,"Arnold Dr + Ex Thera Medial Corporation Inc",,37.997028,-122.116373,,,,,,0
5164,2220,"Howe Rd + Pine St",,37.996725,-122.120823,,,,,,0
5165,2221,"Pine St + Sentinel Dr",,37.997580,-122.122592,,,,,,2
5166,2222,"Vista Way + Pine St",,37.999535,-122.122870,,,,,,2
5167,2223,"Green St + Las Juntas St",,38.017002,-122.134115,,,,,,0
5168,2224,"Railroad Ave + Church St",,37.820200,-121.999040,,,,,,2
5169,2193,"Antioch BART",,37.995637,-121.778125,,,,,,2
5170,435,"Delta Fair Blvd + Kaiser Delta Fair Medical Offices",,38.004128,-121.842777,,,,,,2
5172,2229,"Orindawoods Dr + Woodhall-Orindawoods Clubhouse",,37.888997,-122.180050,,,,,,2
5173,1719,"Broadway Plz + Fountain",,37.896613,-122.058715,,,,,,2
5175,902,"Boulevard Way + Iris Ln",,37.891761,-122.079155,,,,,,2
5176,1343,"Moraga Rd + Kendall Cir",,37.857716,-122.124140,,,,,,2
5177,1433,"Buskirk Ave + The Crossroads",,37.941186,-122.058728,,,,,,2
5180,1467,"Golf Club Rd + College Dr",,37.971621,-122.065481,,,,,,2
5181,1810,"N California Blvd + Bonanza St",,37.899880,-122.063622,,,,,,2
5182,1162,"Lafayette BART",,37.893571,-122.125128,,,,,,2
5185,2074,"Old Orchard Rd + Arnold Dr",,37.996640,-122.110608,,,,,,2
5190,2212,"Pacheco Transit Center",,37.995229,-122.073488,,,,,,2
5192,2095,"Ygnacio Valley Rd + Marchbanks Dr",,37.911325,-122.046674,,,,,,2
5194,1075,"Danville Park and Ride",,37.811989,-121.991816,,,,,,2
5213,2251,"Bates Ave + Commercial Cir",,38.014259,-122.031516,,,,,,2
5216,2235,"Dougherty Rd + Camp Parks Blvd",,37.715729,-121.910086,,,,,,2
5217,2026,"Sunset Dr + Bishop Dr",,37.763086,-121.960857,,,,,,2
5219,2247,"Walnut Creek BART",,37.905800,-122.068000,,,,,,2
5228,484,"Arnold Industrial Way + Concord Adult Homeless Shelter",,38.006900,-122.037200,,,,,,2
5229,480,"Arnold Industrial Way + Industrial Way",,38.008766,-122.032547,,,,,,2
5232,1071,"Pleasant Hill BART",,37.928780,-122.055218,,,,,,2
5240,627,"East St + Sunset Ave",,37.976750,-122.029610,,,,,,2
5241,1681,"Sunset Dr + Bishop Dr",,37.763128,-121.961137,,,,,,2
5275,2239,"Walnut Creek BART",,37.905340,-122.068250,,,,,,2
5276,2241,"Walnut Creek BART",,37.905560,-122.068110,,,,,,2
5277,2242,"Walnut Creek BART",,37.905620,-122.068290,,,,,,2
5278,2243,"Walnut Creek BART",,37.905690,-122.068460,,,,,,2
5279,2244,"Walnut Creek BART",,37.905750,-122.068650,,,,,,2
5280,2246,"Walnut Creek BART",,37.905690,-122.068030,,,,,,2
5282,2248,"Walnut Creek BART",,37.905820,-122.068400,,,,,,2
5283,2249,"Walnut Creek BART",,37.905880,-122.068580,,,,,,2
5284,2250,"Walnut Creek BART",,37.905940,-122.068750,,,,,,2
5288,2257,"Bishop Ranch 1",,37.760090,-121.955590,,,,,,2
5289,1831,"N Main St + N Main Pet Lodge",,37.925030,-122.062900,,,,,,2
5290,1695,"San Ramon Transit Center",,37.770490,-121.960340,,,,,,2
5291,2261,"Rossmoor Shopping Center",,37.878198,-122.072783,,,,,,2
5359,2262,"Muir Rd + Kaiser Martinez Medical Offices",,37.994574,-122.109884,,,,,,2
5360,2263,"Muir Rd + Kaiser Martinez Medical Offices",,37.994695,-122.109962,,,,,,2
5374,572,"Concord Blvd + Mira Vista Ter",,37.973934,-122.036734,,,,,,2
5375,2265,"Tice Valley Blvd + Chives Way",,37.876164,-122.068633,,,,,,2
5376,1826,"S Main St + Newell Ave",,37.893599,-122.058271,,,,,,2
